Name	Link	Latitude	Longitude	Company	Funder	Incubator / accelerator	University / RTO	Sector 1	Sector 2	Sector 3	Sector 4	Sector 5	Sector 6	Sector 7	Sector 8	Sector 9	Sector 10	Sector 11
[AI] Infiniti	https://aiinfiniti.com/	51.374948	-0.089973	1
@33	http://www.my33.co	51.236902	-0.58042	1
15gifts Ltd	http://15gifts.com/	50.824166	-0.145108	1
1859 Cloud	https://1859cloud.com/	51.506993	-0.143563	1
2Dsearch	https://www.2dsearch.com	51.246423	-0.590407	1
360WORK	https://360work.com	51.70743	-0.441084	1
3AI	http://www.3ai.co	51.50719	-0.131624	1
3Blocks	http://www.3blocks.co	51.516947	-0.104733	1
3M Buckley Innovation Centre (3MBIC)	http://www.3mbic.com	53.640103	-1.778486	1		1.0
4dface	https://www.4dface.io	51.502709	0.045392	1
4Sight Imaging	https://www.4sightimaging.com/	53.581113	-2.431967	1
4th Office	http://4thoffice.com	51.514124	-0.198357	1
5ire	https://5ire.org	51.527304	-0.088894	1
7 GEN ANALYTICS	http://www.7genanalytics.com	51.524419	-0.099539	1
7bridges	https://www.the7bridges.com/	51.513055	-0.133416	1
9fin	http://9fin.com	51.530785	-0.093391	1
A-dapt	http://a-dapt.com	51.524057	-0.084602	1
A-lead	https://a-lead.ai	51.522487	-0.325165	1
ABAKA	https://abaka.me/	51.495014	-0.145779	1
AbleAI	http://ableai.co.uk	53.408364	-2.994388	1
Above Surveying	http://www.abovesurveying.com	51.880727	0.942423	1
absurdia	https://absurdia.eu	51.514897	-0.123615	1
Abtrace	https://www.abtrace.co	51.519362	-0.175784	1
Academy Of Robotics	http://academyofrobotics.co.uk	51.483649	-3.191783	1
Accelerator	http://www.elevatoruk.com/	57.187553	-2.083208	1		1.0
Accelerator Academy	http://acceleratoracademy.com/	51.503607	-0.091122	1		1.0
Accelex	http://accelextech.com	51.514972	-0.079492	1
Accessible Intelligence	https://accessibleintelligence.io/	51.372675	-0.47478	1
Accunea	http://www.accunea.com	52.384471	-2.234298	1
Accuro Transcription Solutions	http://www.accuro.co.uk	53.30682	-2.375466	1
Acensys	http://acensys.com	51.514145	-0.182171	1
Acolyte Resource Group	https://www.acolytegroup.co.uk/	51.501799	-0.094411	1
Acronotics Limited	http://www.acronotics.com	51.302753	-0.060934	1
Acrotrend Solutions	https://acrotrend.com/	51.493807	-0.127532	1
Action.ai	http://action.ai/	51.510761	-0.136723	1
Active OMG | MeetAmi	https://www.meetami.ai/#1	51.515375	-0.139619	1
ACTUISE	http://www.actuise.com	51.530785	-0.093391	1
Acuiti Labs	https://www.acuitilabs.com/	51.517402	-0.101673	1
Acuity Robotics	http://acuityrobotics.co.uk	53.807958	-1.553329	1
Acuity Trading	http://www.acuitytrading.com	51.525615	-0.083628	1
Acutro	http://www.acutro.co.uk	51.632696	-0.099001	1
Acuvate	https://acuvate.com	51.522912	-0.650179	1
ACVERA	https://www.acvera.com	51.527304	-0.088894	1
Ad-Lib Digital	http://ad-lib.io	51.517236	-0.11984	1
Ada Mode	http://www.ada-mode.com	51.46377	-2.60996	1
Adanian Labs UK	https://adalab.co.uk/	53.471322	-2.294541	1
Adaptive Reasoning	http://www.adaptivereasoning.com	51.796115	-0.058984	1
Adarga	https://www.adarga.ai	51.503603	-0.099753	1
AddaptiveCX	http://addaptivecx.com	51.501009	-0.141588	1
Additive Flow	http://additiveflow.com	51.516949	-0.083805	1
Additive Manufacturing Technologies	http://amtechnologies.co.uk/	53.395679	-1.393737	1
adDryer.com	https://www.addryer.com/	51.504962	-0.087651	1
Adiona Insurance	http://www.adiona.com	51.514177	-0.093577	1
Adnow	https://adnow.com/	51.518053	-0.133763	1
Adoop	http://adoop.co.uk	51.937989	-0.276676	1
Adoreboard	http://www.adoreboard.com	54.59852	-5.932921	1
Adthena	https://www.adthena.com/	51.511807	-0.081729	1
Advai	http://www.advai.co.uk	51.530785	-0.093391	1
Advanced Finance	http://www.advanced-finance.com	51.059331	-1.319004	1
Advanced Logic Analytics Ltd	http://www.advancedlogicanalytics.com	51.516949	-0.083805	1
Advanced Wireless Technology Group	https://awtg.co.uk/	51.503838	-0.255396	1
Advancing Analytics	http://www.advancinganalytics.co.uk	51.524388	-0.082296	1
Advantra Wealth	http://advantrawealth.com	51.500066	-0.018077	1
Adverttu	http://www.adverttu.com	51.504661	-0.094468	1
Advisory Direct	https://www.advisorydirect.co.uk	55.958374	-3.202282	1
Advizzo	http://www.advizzo.com/	51.49671	-0.062654	1
Aegasis Labs	http://www.aegasislabs.com	51.523112	-0.077938	1
AEMS	https://myaems.com/	51.67199	0.101664	1
aems.ai	http://www.aems.ai	52.199905	0.1218	1
AeroCloud	http://aerocloudsystems.com	53.326486	-2.235724	1
Aesthetic Integration	http://www.imandra.ai	51.517943	-0.090177	1
Aeterno AI	https://aeternoai.com	51.382684	-2.361826	1
Affine Group	http://www.affineglobal.com	51.519348	-0.089631	1
AgenaRisk	https://agenarisk.com	52.195193	-0.028743	1
Agile Automations	https://agileautomations.co.uk	53.483375	-2.247865	1
AgnosPCB	http://agnospcb.com	55.958374	-3.202282	1
AgribotAI	https://crop.ai/	51.52255	-0.087464	1
Agrolabs	http://agrolabs.io	51.532292	-0.062962	1
Agxio	http://agxio.com	52.434766	-4.009343	1
ah! media	http://www.ahmediauk.com	51.131857	-0.176542	1
Ai Abacus	http://www.ai-abacus.co.uk	53.797424	-1.551442	1
Ai Alfred	http://aialfred.co.uk	53.472608	-2.224496	1
AI and Games	http://www.aiandgames.com	51.996263	-0.224965	1
AI Art Shop	https://aiartshop.com	51.514897	-0.123615	1
AI Build	http://ai-build.com/	51.570969	-0.042906	1
AI Chatbot Software for Your Website	https://smartchat.live/	51.481188	-0.103854	1
AI Factory	http://aifactory.co.uk/	51.610963	-0.369101	1
AI for Global Goals	http://www.globalgoals.ai	51.520592	-0.12221	1
AI Prescience	http://aiprescience.com	51.504937	-0.019523	1
AI Studio	http://aistudio.co.uk	51.476344	-0.196995	1
AI Technologies	https://www.aitechnologies.co	51.50719	-0.131624	1
AI Transformation	https://aitransfo.com	51.798149	-0.081536	1
AI Vantage	http://aivantage.ai	53.796496	-1.559842	1
Ai Video	http://aivideosolutions.com	51.37229	-0.459727	1
AI VIVO	https://www.aivivo.co	52.235272	0.153729	1
Ai XPRT (Audit XPRT)	http://ai-xprt.com	51.509294	-0.135544	1
AI-Adam	https://www.ai-adam.com	51.659931	-0.39394	1
AI-Detect	http://ai-detect.com	51.507567	0.063234	1
AI-PRIORI Ltd.	http://www.ai-priori.com	52.55443	-1.824178	1
AI, Data & Analytics + Intelligent Automation Networks	https://www.intelligentautomation.network/	51.494124	-0.142343	1
Ai4world	https://ai4world.org/	51.896882	-0.472026	1
Ai8	http://www.ai8.io	51.449026	-0.111936	1
aiAcquire	http://www.aiacquire.com	51.214063	-0.74813	1
aiCV.io	http://aicv.io	51.514897	-0.123615	1
AIDAC Research Center	https://ai-dac.com/	53.052626	-3.006109	1
Aidrivers	https://aidrivers.ai	51.528136	-0.442105	1
AIF Quantum	https://aif-quantum.com/	51.517689	-0.155769	1
AIGRIA	https://aigria.com	51.491825	-0.038703	1
Aiimi	http://www.aiimi.com	52.032747	-0.770378	1
AIMed	http://ai-med.io/	51.065073	-0.328841	1
Aimera - Interactive Marketing Channel	https://business.aimera.io	51.498772	-0.200547	1
Aimondo UK Ltd.	https://www.aimondo.com/en	51.514897	-0.123615	1
AIMS DYNAMICS	http://aimsdynamics.com	51.518467	-0.142405	1
AINOSTICS	https://www.ainostics.com	53.478001	-2.24628	1
aire	https://aire.io/	51.514455	-0.111772	1
Airfinity	https://www.airfinity.com	51.514923	-0.123654	1
AirGain: Pricing Intelligence Solution for Airlines	https://rategain.com/travel-software/airfare-intelligence-solutions/	51.523126	-0.097949	1
AirGrid	http://airgrid.io	51.518366	-0.115084	1
AIROBOTICS	https://airobotics.ai	51.473167	-0.18226	1
Airport AI	http://www.airport.ai	51.513832	-0.102112	1
Airts	https://www.dayshape.com	55.947094	-3.202621	1
aisle 3	http://aisle-3.co	51.525615	-0.083628	1
AISSA Labs	https://www.aissalabs.com/	51.525325	-0.059422	1
Aistetic	https://aistetic.com/	51.672535	-1.281491	1
AITutor	http://aitutor.co.uk	51.527304	-0.088894	1
Akari Solutions	http://akari.io	55.863313	-4.257178	1
Akero	http://akerolabs.com/	50.795352	-1.105586	1
Akktia	https://akktia.com	55.865464	-4.26894	1
Akrivia Health	http://www.akriviahealth.com	51.751583	-1.267037	1
Akumen	http://www.akumen.co.uk/	50.823871	-4.550105	1
Al's Creek, Ltd.	https://www.alscreek.com	51.520592	-0.12221	1
Aladdin Healthcare Technologies	http://www.aladdinid.com/	51.523387	-0.097027	1
Alana	http://alanaai.com	51.533481	-0.125043	1
Alana AI	http://alana.ai	51.514972	-0.079492	1
Alarmonit Ltd	https://alarmonit.com	53.374977	-1.469035	1
Albora Technologies	https://www.albora.io	51.496875	-0.101359	1
Alchemetrics	http://alchemetrics.co.uk/	51.455049	-0.967134	1
ALCHEMY AI	http://www.alchemy.ai	51.513658	-0.115996	1
Alchemy Machines	https://alchemymachines.ai/	51.525615	-0.083628	1
Alchera Technologies	https://www.alcheratechnologies.com	52.234821	0.129527	1
AlgoDynamix	http://www.algodynamix.com	51.504937	-0.019523	1
Algovision	https://algovisionai.com/	51.511263	-0.12695	1
Alini Med	http://alini.org	51.530785	-0.093391	1
All Broad Sports	https://allbroadsports.com	51.502013	-0.024765	1
All Street	http://www.sevva.ai	51.523557	-0.081915	1
Allermuir Capital Ltd	http://www.allermuircapital.com	51.473852	-0.202752	1
AlliedCrowds	http://www.alliedcrowds.com	51.507217	-0.142906	1
ALLO Energy	http://allo.energy	55.938749	-3.185729	1
Almost Surely	http://almostsurely.co.uk	51.664143	-0.083601	1
Alnair Tech Ltd	http://www.alnair.io	53.947435	-1.032753	1
Alpha AI	https://www.alphaai.biz	51.342371	-0.189866	1
ALPHA ENGINEER	http://www.alphaengineer.nl	51.530785	-0.093391	1
Alpha Quants	https://www.alphaquants.co/	51.504937	-0.019523	1
Alphachain Capital	http://alphachaincapital.co.uk	51.242227	-0.169029	1
AlphaGen AI	https://alphagen.ai/	51.514897	-0.123615	1
Alphalake AI	https://alphalake.ai	51.53348	-0.124999	1
Alphaplate	http://alphaplate.io	51.510696	-0.225806	1
Altelium	http://altelium.com	51.512049	-0.077813	1
Altered Carbon	http://altered-carbon.com	51.611064	-0.178421	1
Altio	http://www.altiotech.com	51.492762	-0.080152	1
AltSignals.ai	http://www.altsignals.ai	51.513504	-0.07608	1
alva	https://www.alva-group.com/	51.503874	-0.100376	1
Alver Valley Software	http://www.alvervalleysoftware.com	50.818621	-1.227155	1
Alvius	http://alvius.com	51.527447	-0.088297	1
Ambrogio Robot	http://ambrogio.co.uk	53.192522	-0.598676	1
AMCO Security	http://www.alarm-monitoring.co.uk	54.121886	-1.19157	1
AMJ Global Solutions	http://www.amjglobalsolutions.com	52.05962	-0.763476	1
Amplified Global™	http://www.amplifi.xyz	51.527772	-0.086882	1
AMPLYFI	https://amplyfi.com/?utm_source=LinkedIn&utm_medium=Bio&utm_campaign=Amplyfi	51.523891	-0.083802	1
Ampnext	http://www.ampnext.com	51.511759	-0.091346	1
Analytic Eye	http://www.analyticeye.co.uk	51.454138	-2.610234	1
Analytics Engines	https://analyticsengines.com/	54.579492	-5.937783	1
Analytics Fc	http://analyticsfc.co.uk	51.22679	-2.31429	1
Analytics Intelligence	http://www.analyticsintelligence.com	51.504937	-0.019523	1
analytics-link	http://analytics-link.com	51.460671	-0.300631	1
andMe	http://andmeapp.com	51.527304	-0.088894	1
Animal Dynamics	http://www.animal-dynamics.com	51.731572	-1.207948	1
Anonymisation.ai	https://anonymisation.ai/home	51.460574	-0.93245	1
Answermatic	https://answermatic.ai/	51.571579	-0.08881	1
Anthem Safer Play	https://www.futureanthem.com/products/anthem-safer-play	51.601174	-0.205585	1
Anthropics Technology	https://www.anthropics.com/	51.514142	-0.227099	1
Antiverse	http://www.antiverse.io	51.49216	-3.160848	1
Anycareer	http://anycareer.com	51.514897	-0.123615	1
Anything World	http://anything.world	51.521039	-0.072032	1
AORA	http://www.aoralaw.com	51.502709	0.045392	1
Aplisay	https://www.aplisay.com/	51.524057	-0.084602	1
Appic	https://www.appicltd.com/	50.809443	-0.540338	1
Applegate Marketplace	http://www.applegate.co.uk	51.072452	-4.069473	1
Application Resource Management®	https://applicationresource.management/	51.527304	-0.088894	1
Applied Data Science Partners	https://adsp.ai	51.513227	-0.08716	1
Applied Machine Learning	http://appliedmachinelearning.co.uk	51.486779	-0.806007	1
Apricus Med-Tech UK Ltd	https://apricus-medtech.com	52.976066	-2.174941	1
aQovia	https://www.aqovia.com/	51.519909	-0.080048	1
Arabesque AI	http://www.arabesque.com	51.519208	-0.122126	1
Arachne.ai	https://arachne.ai	51.525615	-0.083628	1
Arachnys	http://www.arachnys.com	51.521071	-0.108972	1
AraData	https://aradata.io/	51.514897	-0.123615	1
Aralia Systems	https://araliasystems.com/	51.070675	-0.328154	1
Archangel Imaging	https://www.archangel.im	51.582823	-1.309041	1
Arctic Shores	https://www.arcticshores.com/	53.48169	-2.240894	1
Arctoris	http://www.arctoris.com	51.623602	-1.291131	1
Arena	https://www.arena.ai/	51.513476	-0.179056	1
Arenko	https://arenko.group	51.520988	-0.112724	1
ARG-tech	https://arg-tech.org	56.457345	-2.978269	1
Aria Networks	http://www.aria-networks.com	51.378196	-2.368084	1
Aria's Science Data Analytics Uk Worldwide	http://datascienceconsultancy.co.uk	51.363246	-0.285114	1
Aridhia Informatics	http://www.aridhia.com	55.864184	-4.261129	1
Ariel AI	http://www.arielai.com	51.534507	-0.093435	1
Aries Robotics PLC	http://ariesroboticsai.com	51.511839	-0.080808	1
Arion AI	http://www.arion.ai	51.508004	-2.595018	1
Aritmetika	https://www.aritmetika.net	51.515995	-0.144051	1
Arkera	https://www.arkera.ai	51.525615	-0.083628	1
ARKVIEN AI	https://arkvien.ai	51.520592	-0.12221	1
Arline	https://arline.io	51.514897	-0.123615	1
Arloid Automation	https://www.arloid.com	51.513513	-0.112053	1
ARM Robotics	http://armrobotics.co.uk	52.490344	-1.909863	1
Armatus Oceanic	http://armatusoceanic.com	54.974093	-1.618757	1
ArrayStream Technologies	http://www.arraystream.com/	51.494152	-0.062881	1
Arria NLG	http://arria.com	51.493393	-0.226335	1
Arrow Labs	http://arrow-labs.co.uk/	51.450157	-2.805075	1
Art AI	https://www.artaigallery.com	52.197992	0.151459	1
Artesian Solutions	http://www.artesian.co/	51.435397	-0.892813	1
Articolare	https://www.articolare.com/	51.514153	-0.121654	1
Artificial Labs	https://artificial.io/	51.512797	-0.093739	1
Artificial Learning	https://www.artificiallearning.com/	51.530785	-0.093391	1
ArtiFit - AI Personal Trainer	http://artifit.app/	51.514897	-0.123615	1
Artimus	https://www.artimus-uk.com	51.482388	-3.16963	1
Artin Analysis LTD	http://artinanalysis.com	51.335265	-0.404378	1
Artios	https://artios.io	51.461432	-0.304685	1
Artisio	https://www.artisio.co/	51.530785	-0.093391	1
ARWAY	http://arway.app	51.504938	-0.019496	1
Ascalia	http://ascalia.io	51.51644	-0.153513	1
Ascend Technologies	http://ascendtec.co.uk	50.961302	-1.422421	1
Ashiyana Space	http://ashiyana.space/	51.516947	-0.104733	1
AskPorter	http://www.askporter.com	51.421024	-0.174477	1
ASPIRE App	https://aspireapp.co/	51.361863	-0.192017	1
Asterlogic	http://www.asterlogic.co.uk	55.863557	-4.258297	1
Astraguard.Com	http://www.astraguard.com	52.453827	-1.932869	1
Astroscreen	http://astroscreen.com	51.518925	-0.111382	1
Atchai Digital	http://atchai.com/	51.527087	-0.080683	1
Atlas AI	https://www.atlasai.co.uk/	51.48725	-0.115673	1
Atlas Group London	http://www.atlascontech.com	51.535323	-0.103321	1
Atmos Lab	http://www.atmoslab.io/	51.526926	-0.08735	1
AtomX Digital	http://www.atomxdigital.com	51.529985	-0.127014	1
Attraqt	http://www.attraqt.com	51.51827	-0.110187	1
Atypical Cosmetics	http://atypicalcosmetics.com	55.871751	-4.28836	1
Audiense	http://www.audiense.com	51.526082	-0.079041	1
Audio Analytic	https://www.audioanalytic.com/	52.210075	0.117571	1
Audit Intelligence	http://auditintelligence.co	51.478396	-0.212285	1
Augestra	https://augestra.com/	51.626939	0.347074	1
Augmented Insights	http://augmentedinsights.co.uk	52.283749	-1.530955	1
Augmented Solutions	http://augmented-solutions.ltd	50.874023	-1.11423	1
Augmize	https://www.augmize.com/	51.517227	-0.087598	1
Auquan	http://auquan.com	51.523891	-0.083802	1
Aura Vision	https://auravision.ai	51.525648	0.034571	1
Auris Tech	http://auris.tech	51.547521	-0.022262	1
Auro	http://aurofit.co	51.520376	-0.087711	1
Aurora-AI	http://aurora-ai.com	52.307852	-0.590223	1
Aurora-ecs	http://www.aurora-ecs.com	51.504962	-0.087651	1
Aurrigo	http://aurrigo.com	52.402183	-1.489213	1
Autocanteen	https://www.autocanteen.com/	51.596669	-0.545989	1
Autofire	http://autofire.io	51.514897	-0.123615	1
Autom8 Tech	http://www.autom8tech.ai	51.527304	-0.088894	1
Automata	https://automata.tech/	51.530054	-0.097758	1
Automated Creative	http://www.automatedcreative.net	51.557288	-0.011668	1
Automated Vision	http://automated-vision.com	51.514897	-0.123615	1
Automation Software For Additive Manufacturing	https://amfg.ai	51.518837	-0.102438	1
Automorph	https://www.automorph.com	51.547521	-0.022262	1
Autonomia	http://www.autonomia.ai	52.168558	-1.390136	1
Autosphere	http://www.autosphere.ai	51.385204	-0.224637	1
AvaHire	http://www.avahire.io	51.52121	-0.159955	1
Avalon AI	https://avalonai.mystrikingly.com/	51.540376	0.037752	1
avantia group	https://www.avantiagroup.co.uk/	51.403566	-0.256304	1
Avasa AI	http://avasa.ai	51.519112	-0.181704	1
Aveni	https://aveni.ai/	55.930366	-3.180975	1
Aventus Ai Limited	https://aventus.ai	57.148358	-2.278649	1
AVEVA	http://www.aveva.com	52.212978	0.079988	1
Avnio	https://www.avnio.com	51.516947	-0.104733	1
Avnos	https://avnos.io	51.518158	-0.10954	1
AVORA	https://avora.com	51.516284	-0.111956	1
axial3D	https://www.axial3d.com/	54.592939	-5.928624	1
Axiom	https://axiomdata.io	51.253395	-0.941312	1
Axon AI	http://axon.ai/	51.524117	-0.085899	1
AxxonSoft UK Ltd	http://www.axxonsoft.com	53.380393	-1.474139	1
AXYOM LTD	https://axyom.ai	51.518467	-0.142405	1
Aya Data	https://ayadata.ai	51.517706	-0.12324	1
Azbookus	http://www.azbookus.com/	51.466072	-3.159265	1
B2BHolidays	http://b2bholidays.com	52.480481	-1.897691	1
B3 METRIX	http://www.b3metrix.com	51.523709	-0.142321	1
babaCLICK	http://babaclick.com	51.518467	-0.142405	1
Babylon Health	https://www.babylonhealth.com	51.492939	-0.166943	1
BackHug	http://www.mybackhug.com	55.946956	-3.218982	1
Bactobio	http://bacto.bio	51.494152	-0.062881	1
BAE Systems	http://www.baesystems.com/en/home	51.505933	-0.133981	1
Bagboard	http://bagboard.com	51.505253	-0.100002	1
BALLN	http://www.balln.ai/	51.511871	-0.094466	1
baresquare	http://www.baresquare.com	51.525177	-0.090295	1
Baro Vehicles	http://www.barovehicles.com	52.511597	-1.461506	1
BatteryDev	http://battery.dev	52.229173	0.157812	1
Bayes Server	https://www.bayesserver.com/	50.807402	-0.47913	1
Beamery	http://beamery.com	51.529411	-0.075354	1
Beatchain	http://beatchain.com	51.504656	-0.088617	1
Beauty by Holition	http://holitionbeauty.com	51.517421	-0.109977	1
Beauty Labs	http://www.beautylabs.com	52.234244	0.151936	1
Beauty Matching Engine	http://beautymatchingengine.com	51.510412	-0.188545	1
BEEMRAY (a Verve Group company)	http://www.beemray.com	51.525177	-0.090295	1
Behavioural AI	http://www.behavioural.ai	51.514897	-0.123615	1
Behavox	https://www.behavox.com/	51.48289	-0.124037	1
Behold.ai	https://behold.ai/	51.502598	-0.09258	1
BeMyEye	http://www.bemyeye.com	51.532454	-0.105502	1
BeneTalk	http://benetalk.com	51.370503	-0.390382	1
BenevolentAI	http://benevolent.ai	52.132684	0.205443	1
Bering	https://beringresearch.com/	51.442886	-0.34795	1
Bespoke Alpha	https://www.bespokealpha.co.uk	52.083065	-0.714361	1
BetaDen	http://www.beta-den.com	52.104819	-2.311898	1		1.0
Betamile	http://betamile.co.uk	51.503409	-0.09613	1
Beyond Analysis	https://www.beyondanalysis.info	51.514455	-0.111772	1
Beyond Image - Intelligent Massage Retreat	https://aimassage.co.uk/	51.538865	0.746375	1
BIAMI.io - Intelligent Automation	https://www.biami.io	51.535787	-0.056915	1
Bibblio	https://www.bibblio.org	51.523874	-0.096546	1
BICO AI	http://bico.ai	51.514044	-0.157257	1
Bidnamic	http://bidnamic.com	53.80049	-1.532335	1
Big Consultancy	http://big-consultancy.com	51.516753	-0.179203	1
BigSis	http://bigsis.tech/	51.461543	-0.983	1
BioCity Accelerator Programme	http://www.biocity.co.uk/accelerator	53.277552	-2.230068	1		1.0
Biolink Tech	https://biolink.tech	51.506822	-0.091294	1
Biomesight	http://www.biomesight.com	51.527304	-0.088894	1
Biop AI	http://biop.ai	51.46372	-0.30247	1
BioPhonics	http://www.biophonics.co.uk	52.234821	0.129527	1
Biorelate	http://biorelate.com/	53.463089	-2.238424	1
Bios Health	https://www.bios.health	52.194995	0.127829	1
Bipolar Buddy	https://www.bipolarbuddy.co.uk	51.525615	-0.083628	1
Bird.i	http://www.hibirdi.com	55.860428	-4.259346	1
BISINTELLIGENCE.COM	http://www.bisintelligence.com/	51.527304	-0.088894	1
Bitfount	https://bitfount.com	51.543909	-0.130077	1
Bitmaster	https://bitmaster.london	51.500523	-0.080592	1
BitNautic	http://www.bitnautic.com	51.545907	0.165728	1
Black Square Media	https://blacksquaremedia.com/	51.52482	-0.082698	1
Black Swan Data	https://www.blackswan.com/	51.503492	-0.11564	1
BlackCurve - Price Management & Optimisation Software	https://www.blackcurve.com	51.504575	-0.098016	1
BlackDice Cyber	http://blackdice.io	53.839796	-1.621924	1
Blackford Analysis	https://www.blackfordanalysis.com/	55.923219	-3.187863	1
Blippar	http://www.blippar.com	51.506938	-0.106906	1
Block23	http://www.block23.me	51.520592	-0.12221	1
BlockCheck	https://www.myblockcheck.com/	51.46085	-0.305541	1
BlockDox	http://blockdox.com	51.504937	-0.019523	1
Bloom Agency	https://www.jaywing.com/	53.789835	-1.5339	1
Bloomino	http://bloomino.co.uk	51.510654	-0.071577	1
Bloomsbury Health	http://bloomsburyhealth.org	51.517427	-0.124362	1
Blooware | Applied Artificial Intelligence	http://blooware.co.uk	51.490608	0.034812	1
Blue Duck Education - Mangahigh.com	http://www.mangahigh.com	51.52255	-0.08634	1
Blue Prism	http://www.blueprism.com/	51.524579	-0.141623	1
BluePatient	http://www.bluepatient.co.uk	51.527304	-0.088894	1
Bluepod Media	https://www.bluepodmedia.com/	51.729527	0.471917	1
Bluetech Energy	http://www.bluetech-energy.co.uk	55.858103	-4.278944	1
Blutick	https://blutick.com	52.190036	0.161214	1
Blyng	https://blyng.io	51.519712	-0.087782	1
BMLL Technologies	https://www.bmlltech.com	51.525169	-0.090466	1
BNM Analytics	http://www.bnmanalytics.com	51.65979	-0.397444	1
Bodi.Me	http://bodi.me/	51.520229	-0.079256	1
Body Volume Index	http://www.bodyvolume.com	52.104819	-2.311898	1
BODYSWAPS	http://bodyswaps.co	51.529418	-0.075239	1
Bold Data Ltd	http://www.bolddata.org	51.607107	-0.422103	1
Bold Mind	http://boldmind.co.uk	51.504937	-0.019523	1
Boltzbit	https://www.boltzbit.com	51.52435	-0.139672	1
Bomensoft	https://www.bomensoft.com	51.497722	-0.015545	1
BOOKLUK.com - Bookluk Ltd	https://bookluk.com/	51.513832	-0.102112	1
BOON	https://www.boon.so	50.902069	-1.404733	1
BOT-IOT	http://www.bot-iot.com	51.590841	-0.102106	1
Botchat Agency	http://www.botchat.agency/	54.12733	-2.76848	1
BotCore.AI	https://botcore.ai/	51.522912	-0.650179	1
Botprobe	http://botprobe.co.uk	52.322751	-0.073486	1
BotsandUs	http://www.botsandus.com	51.494152	-0.062881	1
BotsCrew	https://botscrew.com/	51.516753	-0.179203	1
Braendler Engineering	http://braendler.com/home	51.518042	-0.180676	1
Brainminer	http://www.brainminer.co.uk	51.522322	-0.136554	1
Brainomix	http://www.brainomix.com	51.777813	-1.265355	1
BrainPatch	http://www.brainpatch.ai	51.519893	-0.130253	1
Brainpool	https://brainpool.ai/	51.537812	-0.130658	1
Braintree	http://braintree.com/	51.310189	0.155139	1
BrainWaveBank	https://cumulusneuro.com/	54.613625	-5.898562	1
Brand Radar	https://www.brandradar.co.uk/	51.453388	-0.100832	1
BrandsEye	http://www.brandseye.com	51.493534	-0.148205	1
Brandwatch	https://www.brandwatch.com/	50.824496	-0.140054	1
Breathe AI	http://www.breathe-ai.com	51.514897	-0.123615	1
Breathe Happy	https://www.letsbreathehappy.com/	51.095137	-0.726424	1
Brego	https://www.brego.io	51.487373	-0.191432	1
Bricolage Research & Analysis	http://bricolagera.com	51.441607	-0.212321	1
BRIDGE	http://www.bridgeglobal.co	51.523127	-0.086993	1
bridge_ci	https://www.bridgeci.co/	51.528069	-0.084679	1
Brightmast	http://www.brightmast.com	53.305604	-2.373549	1
Brightmile	http://www.brightmile.io	51.500255	-0.189284	1
BrightSign	https://www.brightsignglove.com/	51.503692	-0.01491	1
BRL Technology Business Incubator	http://www.brl.ac.uk	51.501079	-2.547458	1		1.0
Bronze	http://www.bronze.ai	51.419431	-0.377345	1
Brookes Supply Chain Solutions	https://www.brookes-scs.com	51.517653	-0.142654	1
brytlyt	http://www.brytlyt.com	51.286242	0.545592	1
bskt	https://www.bskt.co/	51.530785	-0.093391	1
BTON Financial	http://www.btonfinancial.com	51.512122	-0.103711	1
Bubblo (BubbleScene Ltd.)	https://bubbloapp.com/	51.508217	-0.123829	1
Bubo.AI	http://bubo.ai	54.586416	-1.246959	1
Buildy	http://www.buildy.co	51.484527	-0.199869	1
Business Insight 3	http://www.bi3.co.uk	53.760415	-2.717607	1
Busuu	https://www.busuu.com	51.520272	-0.083002	1
Butterwire	http://butterwire.com	55.975587	-3.597655	1
Buzz Radar	http://www.buzzradar.com	51.54008	-0.152874	1
BYG Systems	https://bygsystems.com/	52.486481	-1.90858	1
Bytcaps Limited	http://bytcaps.com	52.218807	-0.056754	1
C the Signs	http://cthesigns.co.uk	51.516903	-0.146389	1
C4DI – Centre for Digital Innovation	http://www.c4di.co.uk/	53.738909	-0.333217	1		1.0
Caboodle AI	https://www.caboodleai.com/	51.645063	0.05318	1
CAELUM AI Services Ltd.	https://caelumai.uk	51.530785	-0.093391	1
CAIG	http://www.carlyonaigroup.com	51.527304	-0.088894	1
Calbot	http://calbot.co.uk	53.805411	-1.550354	1
Calibre UK Ltd	http://www.calibreuk.com	51.631791	-0.082624	1
Calipsa	http://calipsa.io/	51.518849	-0.17361	1
CallSign	http://www.callsign.com	51.517671	-0.098753	1
Calyo	http://calyo.co.uk	51.499618	-2.551821	1
CamBioScience	http://www.cambioscience.com	52.214018	0.125064	1
Cambrian Intelligence	http://www.caint.io	51.541609	-0.158032	1
Cambridge Intelligence	https://cambridge-intelligence.com	52.19772	0.128296	1
Cambridge Machines Asset Management	http://www.cambridgemachines.com	52.198308	0.129129	1
Cambridge Micrologic	http://micrologic.io	52.214018	0.125064	1
Cambridge Molecular	http://www.cambridgemolecular.ai	52.233766	0.146114	1
Cambridge Quantum Computing	http://cambridgequantum.com/	51.35357	-0.310584	1
Cambridge Respiratory Innovations	https://www.camresp.com/	52.194361	0.135318	1
Cambridge Spark	https://www.cambridgespark.com	51.520751	-0.083112	1
Cambridge Touch Technologies Ltd.	http://www.camtouch3d.com	52.234825	0.136515	1
Camdenai	http://www.camdenai.com	51.530785	-0.093391	1
CanSense	http://cansenseltd.com	51.653039	-3.91196	1
CantabPi	http://www.cantabpi.com	52.235272	0.153729	1
Canterbury Ai	https://canterbury.ai	51.292103	1.064623	1
Cantine	http://www.thecantineco.com	51.517556	-0.119049	1
Capital Enterprise	https://capitalenterprise.org/programme-cap-ai/	51.521843	-0.084997	1		1.0
Capito Systems	http://www.capitosystems.com	52.235272	0.153729	1
Capnovum	http://capnovum.com	51.517285	-0.09603	1
Capri Healthcare	http://caprihealthcare.co.uk	52.4747	-1.903466	1
Captain.ai	http://captain.ai	51.513832	-0.102112	1
Captivate Analytics	https://captivate-analytics.com	51.53274	-0.122157	1
Captur	https://www.captur.ai	51.489467	-0.156678	1
Capture AI	http://www.captureai.net	51.405618	-0.653423	1
Carbon Analytics	https://www.carbonanalytics.com/	51.530785	-0.093391	1
Carbon Re	http://www.carbonre.tech/	51.559402	0.076372	1
Carcinotech Ltd	http://www.carcinotech.co.uk	55.866036	-3.201265	1
Cardinal Analytics	https://cardinalanalytics.co/	54.584991	-5.940398	1
Cardinality	http://www.cardinality.co.uk	51.239373	-0.567415	1
Careviz	http://careviz.life	51.553516	-0.074005	1
CAROL bike	http://carolbike.com	51.492939	-0.166943	1
Carsift	https://carsift.co/	52.946361	-0.616853	1
Case Future	http://casefuture.com	51.590201	-0.061123	1
CASP Technologies Limited	http://www.thecasp.com	53.466926	-2.233578	1
catsAi	https://www.catsai.co.uk/	51.586576	0.018237	1
CausaLens	https://www.causalens.com/	51.493445	-0.217972	1
Causaly	https://www.causaly.com	51.532863	-0.110058	1
Cawamo	http://cawamo.com	53.940672	-1.09211	1
Cazana	https://cazana.com/uk	51.521236	-0.087488	1
CC Hydrodynamics	http://www.cc-hydro.com	51.629369	-0.73458	1
CCG.ai (acquired by Dante Labs)	http://www.ccg.ai	52.234821	0.129527	1
CDDPro	https://www.cddpro.com	51.520025	-0.162536	1
Celaton	http://www.celaton.com	52.059617	-0.759575	1
Cell4D Ltd	https://cell4d.com	51.530785	-0.093391	1
Centre for AI & Climate	https://www.icaiec.org/	52.272372	0.292932	1
CENTURY Tech	https://www.century.tech/	51.519929	-0.132951	1
Ceox Services Ltd	http://ceox.co.uk	51.210603	-0.572625	1
Cera Care	https://ceracare.co.uk	51.515595	-0.104403	1
Cerebriam Studio	http://web.cerebriam.com	51.524565	-0.112042	1
CereProc	https://www.cereproc.com/	55.946941	-3.201752	1
Cervest	https://cervest.earth/	51.516313	-0.139138	1
CGA Simulation	http://www.cgasimulation.com	53.394069	-2.969693	1
Chac Ltd	https://www.chac.io	51.499937	-0.090008	1
ChAI	https://chaipredict.com/	51.527304	-0.088894	1
CHAI Analytics	http://chaianalytics.com	51.525615	-0.083628	1
Chai Research Corp.	http://chai.ml/	52.194361	0.135318	1
Change My Face	http://www.changemyface.com	51.899013	-2.076515	1
CHANNELL SOFTWARE ENGINEERING LTD	https://remote.com/benchannell	52.058052	-0.741859	1
CHARM Therapeutics	https://charmtx.com	51.533481	-0.125043	1
ChartDepth	https://www.chartdepth.com/	51.514897	-0.123615	1
Chaser	https://chaserhq.com	51.527689	-0.080011	1
ChatableApps	http://chatableapps.com	51.503492	-0.11564	1
Chatseer	https://www.chatseer.com	51.84392	-0.922629	1
Chatterbox Labs	http://www.chatterbox.co	51.518038	-0.122636	1
Chattering Monkey	https://www.chatteringmonkey.co.uk	53.374451	-1.497015	1
Chattermill	https://chattermill.com/	51.520172	-0.070742	1
Check an Invoice	http://www.checkaninvoice.com/	51.518849	-0.17361	1
Checkdocs	https://www.checkdocs.co.uk/	52.283658	-1.531444	1
Chip	https://www.getchip.uk/	51.517484	-0.112941	1
Chironics.ai	http://www.chironics.ai	52.633426	-1.136	1
Chisel Robotics LTD.	http://chiselrobotics.com	51.456516	-2.582992	1
Chordata Limited	http://www.chordatainsight.com	51.33112	-0.248948	1
Chosen AI	http://chosen.ai	51.501645	-0.189647	1
Chronomics	http://chronomics.com	51.515768	-0.224009	1
Churnly	http://churnly.ai	51.514897	-0.123615	1
Cievert	https://www.cievert.co.uk	54.963942	-1.605733	1
Cifres Ltd	https://www.cifres.com	52.243059	-0.873006	1
CINERATE	http://cinerate.app	51.515918	-0.122936	1
Cinnect	http://www.cinnect.net	51.516947	-0.104733	1
Cipher	https://cipher.ai/	51.511082	-0.128669	1
Circadia	https://circadia.health	51.371591	-0.078271	1
Circklo	https://www.circklo.com	51.513529	-0.086355	1		1.0
Circosense	https://circosense.com	55.906421	-4.405154	1
Circuit Mind	http://circuitmind.io	51.525615	-0.083628	1
Circulor	https://www.circulor.com	51.495997	-0.230815	1
Cirrom	http://www.cirrom.com	51.349074	-0.461404	1
Citi Logik	http://www.citilogik.com	53.794865	-1.546622	1
Citispotter (UK)	http://citispotter.com	52.067887	-0.608772	1
City Data Science Society	http://www.datasciencesociety.city	51.527704	-0.102614	1
CityFalcon	https://www.cityfalcon.com	51.504937	-0.019523	1
CityMaaS	https://citymaas.io/	51.416601	0.013215	1
CitySmarter.ai	https://www.citysmarter.ai	53.344988	-2.638781	1
Claim Technology	https://claimtechnology.co.uk	51.495339	-0.142452	1
Claritas HealthTech Pte Ltd	http://www.claritashealthtech.com	51.513272	-0.08664	1
Clariti AI	http://clariti.ai	51.529267	-0.088088	1
Class Charts	http://www.classcharts.com	51.99431	-4.977049	1
ClauseMatch	http://www.clausematch.com	51.503692	-0.01491	1
Clawsh Marketing	http://clawshmarketing.com	55.694635	-3.68783	1
Clear View Imaging	http://clearviewimaging.co.uk	51.739862	-0.968054	1
Cleo	https://www.meetcleo.com/	51.52486	-0.083631	1
Click 26	https://click26.co.uk	51.161506	-0.636587	1
ClinTex Ltd	http://www.clintex.io	51.611064	-0.178421	1
Clippd	http://www.clippd.io	51.420172	-0.209015	1
Cloud IQ	https://www.cloudiq.com/	51.513348	-0.077934	1
Cloud Officer	https://cloudofficer.co	51.49227	-0.223439	1
Cloudaeon	http://cloudaeon.co.uk	53.397872	-2.353017	1
Cloudbanter	http://www.cloudbanter.com	51.519947	-0.156946	1
CloudFactory	http://cloudfactory.com	51.579744	-0.370112	1
Cloudgap	https://www.cloudgap.ai	51.58181	-0.35499	1
CloudMade	http://www.cloudmade.com	51.51827	-0.110187	1
Cmlabs	https://cmlabs.com	51.003204	-1.383416	1
CMR Surgical	http://cmrsurgical.com	52.251597	0.134405	1
Coastr	https://www.coastr.com/	55.97707	-3.173073	1
CODE LABX	https://codelabx.ltd	52.660138	-2.489399	1
CodeBase	http://www.thisiscodebase.com/	55.939959	-3.182275	1		1.0
Codec	http://www.codec.ai	51.527447	-0.088297	1
Codeplay Software	https://www.codeplay.com/	51.420991	-0.106047	1
coding.bio	http://www.coding.bio	51.75438	-1.2232	1
Coefficient Systems	https://coefficient.ai	51.518467	-0.142405	1
Cogitat	https://cogitat.io	52.046795	-0.022182	1
Cogmatic	http://cogmatic.io	51.514897	-0.123615	1
Cognetivity Neurosciences	http://www.cognetivity.com	51.51827	-0.110187	1
Cogninn	http://www.cogninn.com/	51.523427	-0.13759	1
Cognino	http://cognino.ai	51.579466	-0.3343	1
Cognism	https://cognism.com	51.489442	-0.12339	1
Cognitiv+	http://www.cognitivplus.com/	51.54771	-0.128781	1
Cognitive Advertising Solutions	http://www.cognitiveadv.com/	51.550642	-0.165788	1
Cognitive Business	http://cognitive.business	51.514897	-0.123615	1
Cognitive Sales	http://www.cognitivesales.com	52.755966	1.570653	1
Cognosys	http://www.cognosys.co.uk/	50.924024	-1.398548	1
Colabox	https://colabox.co	52.153025	0.188043	1
Collider	http://collider.io/	51.508413	-0.106932	1		1.0
Color Trix Ltd.	https://colorfinale.com/	51.876492	0.61295	1
Colourtext	https://colourtext.com/	54.73014	-2.603465	1
Combine AI	https://combine.ai	51.278633	-0.43475	1
CoMind	http://www.comind.io	51.522667	-0.108661	1
Comparesoft	http://comparesoft.com	51.514897	-0.123615	1
Complete Insight	http://www.complete-insight.com/	53.255132	-2.123918	1
ComplyAdvantage	https://complyadvantage.com/	51.517706	-0.12324	1
Computer Vision Machine Learning	https://www.simumation.limited	52.903757	-2.476384	1
Concirrus	https://www.concirrus.ai	51.504656	-0.088617	1
Concr	http://www.concr.co	52.132684	0.205443	1
Concured	http://www.concured.com	51.526019	-0.208166	1
conectoMED	https://www.conectomed.com/	51.513211	-0.135888	1
Connect-AI	http://www.connect-ai.co.uk	51.527304	-0.088894	1
Connected World Technologies	https://www.connectedworld.tech	51.505918	-0.735221	1
Connected2	http://www.connected2.io	51.527772	-0.086882	1
Consequential Robotics	http://consequentialrobotics.com	51.501079	-2.547458	1
Constellation AI	https://constellation.ai/	52.47975	-1.904952	1
Construction AI and Data Trust	https://www.constructionai.org	53.276504	-2.764077	1
Construction Automation Limited	https://www.constructionautomation.co.uk/	53.924001	-0.800219	1
Consultivate	http://www.consultivate.com	51.520592	-0.12221	1
ContactEngine	https://www.contactengine.com/	50.92105	-1.310952	1
Content Score Limited	http://www.contentscore-ai.com	51.514455	-0.111772	1
Contentyze	https://contentyze.com/	51.514897	-0.123615	1
Contilio	http://www.contilio.com	51.521236	-0.087488	1
Continuum Industries	http://continuum.industries	55.946941	-3.201752	1
Conundrum	http://conundrum.ai	52.232284	0.151169	1
Converge	https://www.converge.io/	51.511497	-0.101918	1
Convergent Labs	https://www.whisperai.co.uk	51.525615	-0.083628	1
Conversationly	http://conversationly.co.uk	51.558454	-3.044589	1
Cooee®	http://www.letscooee.com	52.168615	0.101855	1
Coracle Diagnostic	http://www.coracle.ai	51.506094	-0.137893	1
Core Advanced Technologies	http://coreadvancedtechnologies.com	52.095482	-1.947112	1
Corestrat Labs	https://cslabs.ai/	51.513463	-0.085652	1
Corigan SEO Platform	https://corigan.io	51.517516	-0.122222	1
Corizance	http://www.corizance.com	51.45959	-0.382471	1
Corporation 9	https://corporation9.com	51.622648	-0.105319	1
Correlation Machines	http://www.correlationmachines.com	51.101806	-2.686719	1
Cosmient	https://www.cosmient.ai	53.473009	-2.252504	1
Cosmosair	http://cosmosair.net	51.520592	-0.12221	1
CourtCorrect	https://www.courtcorrect.com	51.493102	-0.146519	1
CourtQuant	http://www.courtquant.com	51.578336	-0.138262	1
Couvenda™ - the 24/7 concierge for your brand	https://couvenda.com	52.207134	-0.95796	1
Cre8Care	http://www.cre8care.org	51.136829	-0.779764	1
create.ml	https://create.ml	51.059331	-1.319004	1
Creation Healthcare	https://creation.co/	51.51506	-0.13453	1
Creative Virtual	http://www.creativevirtual.com	51.507626	-0.026468	1
CREBL	http://www.crebl.com	54.788774	-1.58518	1
Credensa	https://www.credensa.co.uk	51.525522	-0.085117	1
CreditEnable	http://www.creditenable.com	51.518467	-0.142405	1
Crescendo Systems	http://crescendosystems.co.uk/	51.430088	-0.389813	1
Crimson Step	http://www.crimsonstep.com	51.525615	-0.083628	1
CRM Bot Ltd.	https://crmbot.ai	51.622648	-0.105319	1
Cron AI	https://www.cronai.ai/	52.876851	-1.467867	1
CropSafe	http://cropsafe.io/	54.719469	-6.530275	1
Crossing35	https://crossing35.com	55.946251	-3.201586	1
Crowd Vision	http://www.crowdvision.com	51.502719	-0.110038	1
CrowdEmotion	http://www.crowdemotion.co.uk/	51.520068	-0.108106	1
Crowdynews	http://www.crowdynews.com	53.797085	-1.540059	1
Crozdesk	https://crozdesk.com	51.526082	-0.079041	1
CRYPTON DIGITAL ASSETS	http://crypton.ai	51.514116	-0.131715	1
CUBE	https://www.cube.global	51.514521	-0.09486	1
Cube Intelligence	http://cubeint.io	51.52208	-0.086314	1
Curenetics	https://www.curenetics.io/	51.616075	0.29922	1
Curve Analytics	http://curveanalytics.co.uk	51.513658	-0.115996	1
Curvestone	https://www.curvestone.io	51.516753	-0.179203	1
CustomsPlus	http://www.customsplus.co.uk	53.191638	-2.878801	1
CVEDIA	http://www.cvedia.com/	51.452229	-0.976796	1
CX Emotion	http://cx-emotion.com	51.509172	-0.126773	1
CXAI Ltd	http://www.cxai.co.uk	51.518467	-0.142405	1
CXPORTAL	https://www.cxportal.com/	51.504065	-0.018437	1
Cyanapse	https://www.cyanapse.com	50.833404	-0.140339	1
CyberMind Technology Ltd	https://cybermindtech.com/	52.603059	-2.129192	1
CyberQ Group	https://cyberqgroup.com/	52.478442	-1.906211	1
Cyberseer	http://www.cyberseer.net/	51.509142	-0.08481	1
CyberSeguro	http://www.cyberseguroglobal.com	51.520809	-0.028608	1
Cybertonica	https://www.cybertonica.com/	51.521843	-0.084997	1
CyBourn	https://www.cybourn.com/	51.913916	-0.207175	1
Cybula	http://www.cybula.com/	53.946809	-1.030833	1
Cydar Medical	http://www.cydarmedical.com	52.126425	0.0355	1
CyLon	https://cylonlab.com/	51.496409	-0.227235	1		1.0
CyStellar	http://www.cystellar.com	51.513769	-0.082324	1
Cyted	https://cyted.ai	52.194361	0.135318	1
Cytomos Ltd.	http://www.cytomos.com	55.950807	-3.212041	1
Cytora	http://www.cytora.com/	51.524554	-0.1006	1
D.A.M. Good Media	https://www.damgoodmedia.com	50.819049	-1.577903	1
Dacian Consulting	https://daciandata.tech	51.443398	-0.202437	1
DACX	https://dacx.io	51.504937	-0.019523	1
DAIVID	http://www.daivid.co	51.472116	-0.084604	1
Dalwyn	https://www.dalwyn.com	51.52384	-0.0961	1
Darktrace	https://www.darktrace.com	52.234244	0.151936	1
Data Allies	https://www.dataallies.com/	51.523815	-0.140544	1
Data Dezign	https://www.datadezign.co.uk	50.798512	-1.061439	1
Data Language	https://datalanguage.com	53.399249	-2.364398	1
Data Mettle	https://datamettle.com	51.537645	-0.057283	1
Data Pillar	http://www.datapillar.co.uk	51.520592	-0.12221	1
Data Quarks	http://www.dataquarks.com	51.520592	-0.12221	1
Data Tale	http://www.datatale.in	51.267102	-1.085655	1
DataAI	http://dataai.uk/	51.511114	-0.223825	1
DataClue	http://www.dataclue.co.uk	51.514455	-0.111772	1
DataInventa	http://datainventa.com/	51.614862	-0.317491	1
DataKey	http://www.datakey-ai.co	51.519906	-0.200089	1
DataKiwi	https://www.datakiwi.co.uk	51.521214	-0.10666	1
DataMine Lab	http://www.dataminelab.com	51.527369	-0.115314	1
DataParQ	https://www.zsah.net/dataparq/	51.493463	-0.177016	1
DataRefiner	http://datarefiner.com	51.504962	-0.087651	1
Dataseat	http://dataseat.com	51.521565	-0.135709	1
datasine	http://datasine.com/#home-section	51.524223	-0.105353	1
DataSparQ	https://www.datasparq.ai/	51.515341	-0.104929	1
DataSpartan Consulting	http://dataspartan.co.uk	51.519347	-0.089657	1
Datatecnics	http://datatecnics.com	54.601401	-1.5719	1
Datatonic	https://datatonic.com/	51.504937	-0.019523	1
Datatrainer	http://datatrainer.co.uk	53.38155	-1.463527	1
datavaluepeople	http://datavaluepeople.com	52.774589	-1.206	1
Dataworkout	https://dataworkout.com/watch-ai-film/	53.793501	-2.240857	1
Datenhance	https://www.datenhance.com	51.529503	-0.046126	1
Dealx	http://dealx.io	51.758766	-1.25061	1
DecisionForest	http://www.decisionforest.com	51.588624	-0.221757	1
Decorte Future Industries	http://www.decorte.co.uk	52.235272	0.153729	1
Deep Dementia Phenotyping (DEMON) Network	http://www.demondementia.com	50.723494	-3.514236	1
Deep Edit	http://www.thedeepedit.com/	51.752802	-1.291297	1
Deep Innovations	https://www.deepinnovations.co.uk/	51.550642	-0.165788	1
Deep Learn Strategies Limited	http://www.dls.ltd	51.611064	-0.178421	1
Deep Learning Partnership	http://www.deeplp.com	51.511671	-0.14979	1
Deep Medical	http://www.deep-medical.ai	51.530785	-0.093391	1
Deep Planet	http://deepplanet.ai	51.574887	-1.314517	1
Deep Render	https://www.deeprender.ai/	51.514772	-0.072095	1
Deep Robotics	http://www.deeprobotics.co.uk	51.523518	-0.102762	1
Deep Science Ventures	http://deepscienceventures.com	51.510761	-0.082623	1		1.0
Deep Zen	http://deepzen.io	51.514183	-0.134768	1
Deep.Meta	https://deepmeta.io/	51.514897	-0.123615	1
deepair solutions	http://deepair.io	51.512708	-0.150119	1
DeepAR	https://www.deepar.ai	51.525322	-0.09643	1
DeepCognito	http://deepcognito.com	53.463532	-2.236768	1
Deeper Insights	http://deeperinsights.com	51.51682	-0.087471	1
Deeper Scan	https://www.deeper-scan.com/	52.011481	-0.452773	1
deephound	http://deephound.co/	51.523008	-0.141128	1
DeepMed IO	http://deepmed.io	53.478001	-2.24628	1
DeepMind	https://deepmind.com/	51.533481	-0.125043	1
DeepMiner	http://deepminer.co.uk	57.147968	-2.100845	1
DeepMirror	https://deepmirror.ai	52.192267	0.137208	1
DeepQuest AI	https://www.deepquestai.com	51.46733	-0.015796	1
DeepReason.ai	http://deepreason.ai	51.731892	-1.204714	1
DeepReel	http://www.deepreel.com	50.918454	-0.99942	1
DeepSee	http://www.deepsee.cloud	51.521071	-0.108972	1
Deepverge	https://www.deepverge.com/	54.0163	-0.972903	1
DeepVibes	https://deepvibes.ai/	51.522586	-0.08537	1
DeepView	http://www.deepview.com	52.054819	-0.853275	1
Deft	http://www.deft.be	51.523617	-0.111076	1
DeGould	http://degould.com	50.692532	-3.443906	1
DeHealth	https://www.dehealth.world	53.384064	-2.353474	1
Delight AI	https://delightpremium.uk	51.520592	-0.12221	1
Della AI	https://www.dellalegal.com	51.520068	-0.108106	1
Delta Heed	http://deltaheed.com	51.578434	0.620293	1
Demo Data	https://demodata.ai	51.502792	-0.219932	1
Dent Global	https://www.dent.global/	51.525204	-0.057425	1		1.0
Deontics	http://www.deontics.com/	51.512403	-0.127476	1
Derisk360	http://www.derisk360.com	51.514897	-0.123615	1
Deroche Insight	https://www.derocheinsight.com	51.524854	-0.092543	1
DetoxAI	https://www.detoxai.com	51.525615	-0.083628	1
DEUS EST MAGNA LTD	http://www.deusestmagna.com	51.523672	-0.174945	1
Dexda	http://dexda.io	51.519926	-0.107495	1
diagnostics.ai	http://www.diagnostics.ai	51.586004	-0.220386	1
DIEMinnovations	https://www.dieminnovations.co.uk	51.459573	-0.128059	1
Diffblue	https://www.diffblue.com/	51.750101	-1.259532	1
Digica	http://www.digica.com	53.398007	-2.358929	1
DIGIPHARM	http://www.digipharm.io	51.527304	-0.088894	1
DigiStyleLDN	http://digistyleoftomorrow.wordpress.com	51.514956	-0.141553	1
Digital Bucket Company	http://www.digitalbucketcompany.com	50.905906	-1.405893	1
Digital Clipboard	http://www.digitalclipboard.com/	51.504937	-0.019523	1
Digital Content Analysis Technology Ltd	http://www.d-cat.co.uk	55.861039	-4.260836	1
Digital Fineprint	https://www.digitalfineprint.com/	51.521071	-0.108972	1
Digital GoToMarket Limited	http://www.digitalgotomarket.com	51.518925	-0.111382	1
Digital Innovators .ai	http://www.digitalinnovators.ai	51.491882	-0.182874	1
Digital Insight	https://www.digital-insight.com	51.534239	-0.121995	1
Digital Intelligence	https://www.enzen.com/capabilities/solutions/digital-intelligence/	52.369652	-1.797152	1
Digital Rail	http://www.digitalrail.co.uk	54.047947	-2.796839	1
Digital Taxonomy	http://www.digitaltaxonomy.co.uk/	51.094722	1.150922	1
Digital-Dandelion	http://digital-dandelion.com	51.534239	-0.121995	1
DigitalASC	http://digitalasc.com	51.527304	-0.088894	1
DigitalBridge	https://www.digitalbridgehq.com/	53.463089	-2.238424	1
DigitalGenius	https://www.digitalgenius.com/	51.511646	-0.136399	1
DigitalHealth.London Accelerator	http://digitalhealth.london/accelerator/	51.506925	-0.089891	1		1.0
DigitalPebble	http://digitalpebble.com/	51.474724	-2.593749	1
DIGNOSIS Ltd	http://www.dignosis.co	51.267273	0.577303	1
Dion.Money	http://dion.money	51.514897	-0.123615	1
Direct Intelligence	https://www.directintelligence.ai/	51.51276	-0.124507	1
Directed Systems Ltd	http://www.directedsystems.com	52.235272	0.153729	1
Discover.ai	https://www.discover.ai	51.326211	-0.355152	1
Discovr Analytics	http://discovranalytics.co	52.194361	0.135318	1
Disperse.io	http://disperse.io	51.516284	-0.111956	1
Disruption Works	https://www.disruptionworks.co.uk	50.417617	-4.108854	1
Disruptional	https://disruptional.com	52.235272	0.153729	1
Distil.ai	https://distil.ai	51.516753	-0.179203	1
Distinct.ai	http://www.distinct.ai	51.530785	-0.093391	1
distriBind	https://distribind.io	51.516945	-0.077927	1
Ditto AI Limited	http://www.ditto.ai/	53.484184	-2.228624	1
Divergence Capital	http://divergencecapital.com	51.530785	-0.093391	1
Diverium	http://diverium.com	51.523578	-0.159711	1
DivideBuy	https://dividebuy.co.uk/	53.012271	-2.220592	1
dividiti	http://dividiti.com/	52.208793	0.089862	1
Djaoo Ltd	http://djaoo.com/	51.357039	-0.270279	1
DMR	http://www.digital-mr.com	51.517653	-0.142654	1
dn8.ai	http://www.dn8.ai	51.60824	-0.373308	1
DocAcquire	http://docacquire.com	51.309998	-0.333607	1
DocNoc	http://www.docnoc.health	51.410667	-0.232729	1
DocsStream	http://docs-stream.com	51.504938	-0.019496	1
Docstack	https://www.docstack.com	51.516635	-0.088776	1
Doctor Little	https://doctorlittle.org/	51.581973	-0.106474	1
Dodona Analytics	http://www.dodonaanalytics.com	51.527304	-0.088894	1
Dogtooth	http://dogtooth.tech	52.088334	0.018848	1
Doji	http://www.doji.co.uk	52.957725	-1.23342	1
Dolphin Analytics	https://www.dolphinanalytics.co.uk	51.52638	-0.071587	1
Dotscience	https://www.dotscience.com	51.515541	-0.108409	1
Dotspot	https://dotspot.online	51.520592	-0.12221	1
Dragonfly	https://dragonflyai.co	51.503932	-0.114596	1
Dream Agility	https://dreamagility.com	53.649239	-2.318245	1
Dressipi	https://dressipi.com/	51.518717	-0.173211	1
Drew Lear Technology	https://drewlear.co.uk/	51.592648	-0.781421	1
DroneAG	http://horizonap.com	55.505633	-1.933019	1
Dronex	https://www.dronex.co.uk/	51.501079	-2.547458	1
Ds Analytics	http://dsanalytics.co.uk	51.494219	-0.225669	1
DScience Ltd	http://d-science.com	52.44592	-1.889287	1
dse Consulting	http://dseconsulting.co.uk	52.782519	-1.203196	1
Ducit.ai	http://ducit.ai/	50.837127	-0.14573	1
Duco (du.co)	https://du.co/	51.522297	-0.102337	1
Duel	https://duel.tech	51.455647	-2.582448	1
DX.company	http://www.dx.company	51.24292	-2.291747	1
Dxcover	https://www.dxcover.com/	55.862039	-4.246269	1
Dyad	https://dyad.net	51.525615	-0.083628	1
Dynamical (Dynamical Systems Research Ltd.)	http://www.dynamical.com	51.492843	-0.156272	1
Dynamify	https://dynamify.com	51.530785	-0.093391	1
DynamIQ Labs	http://www.dynamiqlabs.com	51.527304	-0.088894	1
DynamX Medical	http://www.dynamxmedical.com	51.574887	-1.314517	1
Dynium Robot	http://www.dyniumrobot.com	51.770533	-1.268821	1
E-Nano	http://e-nano.io	51.542958	-0.023109	1
Eagle Genomics	https://www.eaglegenomics.com/	52.079753	0.185363	1
Earth Rover	http://earthrover.cc	52.776781	-2.425645	1
Earth-I	https://earthi.space/	51.241331	-0.616115	1
EarthWave	http://earthwave.co.uk	55.923219	-3.187863	1
EARZZ	https://earzz.co.uk/	51.494334	-0.226782	1
EasyAsk	http://www.easyask.com	51.405619	-0.842066	1
EatingAI	http://www.eatingai.com	51.514897	-0.123615	1
Eatron Technologies	http://eatron.com	52.275438	-1.563759	1
EBI.AI	https://ebi.ai	52.275438	-1.563759	1
EBM (The Enterprise Bot Manager)	http://enterprisebotmanager.com	50.961302	-1.422421	1
EBO for the Banking and Financial Services Industry	https://ebo.ai/schedule-free-consultation/	51.527304	-0.088894	1
eBotify	http://www.ebotify.com	51.525615	-0.083628	1
Eco Metals Recovery	http://ecometalsrecovery.com	51.508988	-0.138381	1
EcoMachines Incubator	http://ecomachinesventures.com/	51.504937	-0.019523	1		1.0
Economic Data Sciences	http://economicdatasciences.com	51.508271	-0.584618	1
Ecosync	http://ecosync.energy	51.745579	-1.25681	1
Ecoutai	http://www.ecoutai.net	52.597021	0.361271	1
Ecovdam	https://www.ecovdam.com	51.471397	-0.177737	1		1.0
Ectropy Technologies	https://ectropy.tech/	51.523468	-0.17341	1
Eczemadoc	http://www.eczemadoc.co.uk	51.514455	-0.111772	1
EDGE AI	http://edge-ai.tech	51.524419	-0.099539	1
Edgify	http://edgify.ai	51.51827	-0.110187	1
Edicat Learning	http://www.edicat.co.uk	51.521843	-0.084997	1
EDITED	http://www.edited.com	51.51958	-0.10791	1
Editorious Lex	http://www.editoriouslex.com	51.513832	-0.102112	1
Edremit	http://edremit.co.uk	51.520494	-0.134668	1
Education AI	https://www.educationai.co.uk	51.547027	-0.178903	1
eGain	http://www.egain.com/	51.405767	-1.326144	1
Egeria Insights	http://egeriainsights.com	51.503569	-0.094913	1
Egham AI t/a Aichoo	https://aichoo.ai/	51.424814	-0.566745	1
Eigen Technologies	https://www.eigentech.com/	51.512937	-0.091888	1
Elanev	http://elanev.co.uk	51.530785	-0.093391	1
Elbridge AI	http://elbridge.ai	51.903222	-0.654861	1
Electric Miles	http://www.electricmiles.io/	51.516978	-0.156331	1
Elemendar	http://elemendar.com	52.111414	0.172247	1
Element Human	https://www.elementhuman.com/	51.510472	-0.120742	1
elementary-AI	https://www.elementary-ai.com/	51.471938	-0.291898	1
Elevate Direct	http://www.elevatedirect.com/	51.507212	-0.102197	1
Eligible	https://eligible.ai/	51.504938	-0.019496	1
Eliminatore	http://eliminatore.com	51.611064	-0.178421	1
Elixivity	http://elixivity.com	51.514897	-0.123615	1
Ellarion Cybernetics Ltd	http://ellarion.com	51.525615	-0.083628	1
Ellipsis Earth	http://www.ellipsis.earth	51.494612	-0.174017	1
Elute Intelligence	http://www.eluteintelligence.com	51.337618	-1.142818	1
Elzware Ltd.	http://www.elzware.com	51.352741	-2.972013	1
embedica.ai	https://www.embedica.ai	51.527304	-0.088894	1
Ember	http://ember.co	51.513658	-0.115996	1
EMERGEiQ	http://www.emergeiq.com	51.513658	-0.115996	1
Emitwise	http://emitwise.com	51.525032	-0.091296	1
Emma.ai	https://emma.ai	51.524419	-0.099539	1
Emotech	http://emotech.ai	51.522586	-0.08537	1
Emotech Design	http://emotech.co.uk	51.652791	-0.077271	1
EmpiricAI	http://empiric.ai/	51.586022	-0.276451	1
Empirisys	http://www.empirisys.io	51.5868	-0.554509	1
EmployBull Limited	http://www.employ-bull.com	51.530785	-0.093391	1
Emteq	https://emteqlabs.com	50.864354	-0.082761	1
Enabl AI	https://www.enabl-ai.com/	53.481043	-2.226332	1
Encord	https://encord.com	51.525615	-0.083628	1
Endila	http://www.endila.com	51.31884	-0.560287	1
Energeo	https://www.energeo.co.uk/	52.506251	-1.706308	1
EngageIQ	http://www.engageiq.co.uk	51.506475	-0.095527	1
Engeniq	http://www.engeniq.co.uk	51.526889	-0.130789	1
ENIAN	http://www.enian.co	51.513198	-0.101879	1
ENRGeo	http://enrgeo.co.uk	51.508891	-0.144711	1
Enrich B2B	https://enrichb2bdata.com	50.87234	0.00289	1
EnrichApp - Simplifying Healthcare Collaboration	http://www.enrichapp.com	52.891399	-1.525823	1
Entale Media	http://www.entale.co	51.501645	-0.189647	1
Enterprai	https://enterprai.com	51.507604	-0.073723	1
Enterprise Bot	http://www.enterprisebot.ai/	51.542958	-0.023109	1
Enterprise Hub	http://enterprisehub.raeng.org.uk	51.505692	-0.132996	1		1.0
Entrepreneur First	http://www.joinef.com	51.494152	-0.062881	1		1.0
Envelop Risk	https://www.enveloprisk.com	51.51877	-0.136385	1
Enverse	http://www.enverselab.com	51.527304	-0.088894	1
EnvisionIt Deep AI	http://www.edai.africa/	51.50137	-0.191152	1
Envolve Tech	http://www.envolvetech.com	51.605204	-2.918574	1
EnVsion	http://envsion.io	51.527304	-0.088894	1
EOLAS Insight Ltd	https://eolasinsight.com/	55.784845	-4.417718	1
EPIC Intent	https://epicintent.com	52.068243	-0.823213	1
EpiCombi.AI limited	https://www.epicombi.ai	51.870144	-1.47993	1
Epiko Regal: Comics, Game & AR	http://www.epikoregal.com	51.504937	-0.019523	1
EQL	http://eql.ai	51.528153	-0.090257	1
Eqlaim	https://www.eqlaim.com	51.527304	-0.088894	1
Equipped Analytical Intelligence	https://www.equipped.ai	51.517694	-0.132203	1
Equiwatt	https://equiwatt.com	54.966398	-1.596194	1
eQuoo - The Emotional Fitness Game	https://www.equoogame.com/	51.498694	-0.116415	1
Eribol	http://www.eribol.tech	51.527304	-0.088894	1
eSalesHub	https://esaleshub.co.uk	53.508519	-1.121909	1
Esprit Digital	https://espritdigital.com/	51.894055	-0.204498	1
Essencient	http://essencient.com/	51.530785	-0.093391	1
Essentia Analytics	https://www.essentia-analytics.com	51.517706	-0.12324	1
eSwapp	http://eswapp.com	51.516947	-0.104733	1
Etymo.io	https://etymo.io	51.520592	-0.12221	1
European Data Analytics Limited	https://europeandataanalytics.co.uk/	54.971016	-1.612535	1
EVA.AI	http://www.eva.ai	50.823624	-0.428129	1
Evertices Ventures	http://www.evertices.com	51.501685	-0.192196	1		1.0
everymessage	http://www.everymessage.com	51.535649	-0.648436	1
Evolution AI	http://evolution.ai	51.504989	-0.093604	1
Evolutions Network Solutions	https://www.ensl.co.uk	51.516947	-0.104733	1
Evolvemyretirement	https://evolvemyretirement.com	51.574609	-0.428063	1
Exalens	https://www.exalens.com/	51.547521	-0.022262	1
ExentAI	http://www.exentai.com	51.514822	-0.175414	1
ExInsight | Data Collection & Analytics Software	https://www.exinsight.com	51.511377	-0.092732	1
Existor	http://www.existor.com/en/	50.721555	-3.535977	1
Exnics	http://www.exnics.com/	57.209034	-2.211812	1
Exobotics	http://exobotics.space	51.527304	-0.088894	1
Exogene	http://www.exogene.co.uk	51.753152	-1.215659	1
Exponea (acquired by Bloomreach)	https://bloomreach.com/	51.499	-0.098706	1
Exposebox by Engage.com	http://www.exposebox.com	51.494216	-0.164741	1
Exscientia	https://www.exscientia.ai/	51.715071	-1.223223	1
Extend Robotics	http://extendrobotics.com	51.603466	-0.297278	1
ExtractHD	https://extracthd.com	51.062144	-0.324421	1
Extreme Networks United Kingdom & Ireland	http://www.extremenetworks.com	51.42515	-0.99205	1
EXUS AI LABS	https://www.exusailabs.eu/	51.486228	-0.012326	1
eXvisory.ai	https://exvisory.ai	51.701558	-0.962522	1
ExxaPay	https://exxapay.com/	51.500547	-0.017237	1
Eye Capital	http://eye-capital.com	51.504937	-0.019523	1
EyeQuant	http://eyequant.com	51.5136	-0.148512	1
Eyezilla	https://eyezilla.ai/	52.757874	-1.246876	1
Eyn	http://eyn.vision	51.519645	-0.084083	1
EYOTO	http://eyoto.com	52.488656	-1.887221	1
fabrique.ai	http://www.fabrique.ai	51.445811	0.210782	1
Face Id Biometrics	http://www.faceid-biometrics.com	53.581113	-2.431967	1
Facewatch	https://www.facewatch.co.uk/	51.508229	-0.123454	1
FactEntry	https://www.factentry.com/	51.519789	-0.164678	1
Factmata	http://factmata.com	51.515372	-0.072487	1
Faculty	https://faculty.ai/	51.517393	-0.14954	1
FAIRTILE	http://www.fairtile.com	51.521117	-0.124556	1
Fantoo	https://fantoo.com	51.409397	-0.767172	1
Farad.ai	http://farad.ai	51.514897	-0.123615	1
Fardoe Software	http://fardoesoftware.co.uk	51.509705	-0.038339	1
Farm-Hand Ltd	http://www.farm-hand.in	55.979895	-2.8973	1
FarmaTrust	https://www.farmatrust.com	51.515873	-0.112243	1
Fashion Concierge	http://fashionconcierge.co.uk	51.523344	-0.10268	1
Fast Data Science	https://fastdatascience.com	51.397828	-0.098448	1
Fat Rabbit	https://fatrabbit.ai	51.507065	-0.273682	1
FDB Systems (acquired by Insig AI Plc)	http://fdb.systems	51.516949	-0.083805	1
feather-ai	https://feather-ai.com	51.647839	-0.257846	1
Featurespace	https://www.featurespace.com/	52.233188	0.147918	1
Fedr8	http://www.fedr8.com	51.276055	-0.761542	1
Feebi	http://getfeebi.com	50.721097	-1.877644	1
Feebris	http://feebris.com/	51.522586	-0.08537	1
Feedforward Ai	https://feedforwardai.com	51.534429	-0.112543	1
FeedStock	https://feedstock.com/	51.512967	-0.13525	1
Feefo	https://www.feefo.com/	50.996715	-0.922024	1
Feeliom	https://www.feeliom.com/	51.518868	-0.131939	1
Felcana	https://felcana.com/	51.510925	-0.117708	1
Fennaio Integrated Artificial Intelligence Ltd.	https://www.fenna.io	53.471322	-2.294541	1
Fetch.AI	https://fetch.ai/	52.235272	0.153729	1
fether	https://www.fether.io	52.199905	0.1218	1
FIDO Tech Ltd	http://www.fido.tech	51.91856	-1.159356	1
Fifty Media (Fifty Technology)	https://fifty.io	51.523321	-0.101801	1
Filament AI	http://www.filament.ai	51.507581	-0.107744	1
Filed	http://www.filed.com	51.521039	-0.072032	1
FilmDoo	https://www.filmdoo.com/	51.530925	-0.118184	1
Filmily	http://www.filmi.ly	50.429832	-3.683479	1
Fincloud	http://fincloud.io	51.512236	-0.079347	1
FinCrime Dynamics	http://fincrimedynamics.com	52.235272	0.153729	1
Findr	http://findr.global	51.511377	-0.092732	1
FindTheRipple	http://www.findtheripple.com	51.508413	-0.106932	1
Finexos	https://www.finexos.co.uk/	52.301239	-2.074285	1
FinGenius	http://www.fingenius.com	51.504937	-0.019523	1
Finintech Limited	https://www.finin.tech	51.521843	-0.084997	1
Finlight.com	http://finlight.com	51.512821	-0.132806	1
Firedrop	https://firedrop.com	51.517167	-0.139229	1
First Notification Ltd	http://first-notification.com	51.407762	0.018391	1
FISCAL Technologies	http://www.fiscaltec.com	51.429985	-0.969964	1
Fisher Smith	https://fishersmith.co.uk/	52.364952	-0.547326	1
Fitwell	https://www.fitwell.co	51.501645	-0.189647	1
Fiume Ltd	http://fiume.uk	51.611064	-0.178421	1
FiveAI	https://five.ai/	52.197643	0.131058	1
Fixzy Assist	http://www.fixzy.co.uk	55.897127	-3.305649	1
Flawless	http://flawlessai.com	51.513413	-0.133203	1
FlickTek	http://www.flicktek.com	51.492642	-0.140775	1
Flo Health	https://flo.health/	51.507604	-0.073723	1
Flock Ltd.	https://www.flockcover.com/	51.516945	-0.077927	1
Flook	http://flook.online	51.520592	-0.12221	1
flourishzone	http://www.flourish.zone	51.374963	-2.350101	1
Flowd	http://www.flowd.co.uk	53.477108	-2.243683	1
Fluence World	http://www.fluence.world	52.564641	-1.823163	1
Fluidly	https://fluidly.com	51.530785	-0.093391	1
Flumaion	http://flumaion.com	51.73139	0.422738	1
Fluxxt Group	https://www.fluxxt.com/	53.486822	-2.240106	1
FlvrLab.eu	http://www.flvrlab.eu	51.520592	-0.12221	1
Fly My Cloud Limited	https://www.flymycloud.com	51.516949	-0.083805	1
Focal Point VR	http://focalpointvr.com/	51.241331	-0.616115	1
Focaldata	https://www.focaldata.com/	51.528518	-0.087932	1
FollowApp.Care	https://www.followapp.care/	51.519909	-0.080048	1
Foodbud	https://www.foodbud.ai/	52.217018	0.141164	1
Foodinjoy	https://foodinjoy.co.uk/	51.518467	-0.142405	1
Foorme AI	http://www.foorme.com	51.502013	-0.024765	1
Forcive	http://www.forcive.com	51.537774	-0.140526	1
Forensic Alpha	https://forensicalpha.com	51.504937	-0.019523	1
Foresight Works	https://www.foresight.works/	51.754074	-1.262249	1
ForeVu	http://forevu.com/	52.202514	-4.344008	1
Fornova	https://www.fornova.com	51.524388	-0.082296	1
Fortrex Analytics	http://www.fortrexanalytics.co.uk	54.970557	-1.563929	1
Fortuitapps	http://www.fortuitapps.com	52.98146	-1.238124	1
FORTYEIGHT	https://fortyeight.ai	51.603197	-0.192104	1
FoSho VISION	https://foshovision.com/	55.865464	-4.26894	1
FOTENIX	http://www.fotenix.tech	53.491776	-2.273808	1
Found Tech	http://www.found.cloud	51.451887	-2.594836	1
founded.ai	https://founded.ai	52.653407	-0.477413	1
FREĠNAN	http://www.fregnan.com	52.039126	-0.767316	1
Fresh4cast	https://fresh4cast.com/	51.51591	-0.108437	1
Freyda	https://freyda.io/	51.524057	-0.084602	1
frgment	http://frgment.com	51.482384	-0.181677	1
FriendlyScore	http://www.friendlyscore.com/	51.512968	-0.147774	1
Frontier Labs	https://frontierlabs.co.uk	53.395989	-2.982128	1
FrontM	http://www.frontm.com	51.521236	-0.087488	1
FundamentalVR	http://www.fundamentalvr.com	51.520151	-0.11211	1
FUNDSaiQ	http://www.fundsaiq.com	51.513658	-0.115996	1
Fusion Data Science	http://www.fusiondatascience.com	53.184585	-2.883296	1
Fusion Processing	https://www.fusionproc.com/	51.499618	-2.551821	1
Fusionex	http://www.fusionex-international.com/	51.504938	-0.019496	1
FusionGrove	https://www.fusiongrove.com	51.494663	-0.276038	1
Futr.ai	http://futr.ai	51.504575	-0.098016	1
futurAI Investment Group	http://www.futurai.co.uk	56.33734	-2.798851	1
Future Perfect (Healthcare)	http://www.future-perfect.co	52.036415	0.083854	1
Future Space	http://www.futurespacebristol.co.uk	51.499618	-2.551821	1		1.0
FUZZLAB	http://fuzzlab.co.uk	52.687714	1.125361	1
Fuzzy Labs	http://fuzzylabs.ai	53.471951	-2.238245	1
G Squared Capital	http://www.gsquaredcapital.com/	51.502547	-0.195773	1
G-Research	http://www.gresearch.co.uk	51.520537	-0.132836	1
GainX ltd	http://www.gainx.com	51.520751	-0.083112	1
gaitQ	https://www.gaitq.com	51.760201	-1.261323	1
Gallwey Geospatial	https://www.gallweygeospatial.co.uk/	53.365775	-2.001223	1
Galytix	https://galytix.com/	51.527772	-0.086882	1
Gap In The Matrix	https://www.gapinthematrix.com/	51.519171	-0.700537	1
Gapsquare	https://www.gapsquare.com	51.448923	-2.583545	1
Gaston	http://www.gogaston.io	51.649814	-0.381419	1
GB Group	https://www.gbgplc.com/products/gbg-idscan/	51.49584	-0.014933	1
GearEx	https://gearex.co.uk/	51.541946	-0.165215	1
Geckomatics	https://geckomatics.com	52.165981	0.114132	1
Gematria Technologies	https://gematria.tech	51.516947	-0.104733	1
Genee Labs	https://geneelabs.com	52.235272	0.153729	1
Genei	https://www.genei.io/lpv2/home-linkedin2	51.50663	-0.130335	1
Generic Ai	http://generic-ai.co.uk/	54.972398	-1.611337	1
Genie AI	https://genieai.co/	51.509117	-0.194937	1
GeniusLead	http://www.geniuslead.com	51.573257	0.452549	1
Genomics	http://www.genomicsplc.com	51.752558	-1.265692	1
Gensyn	https://www.gensyn.ai	51.529267	-0.088088	1
Geomiq	http://www.geomiq.com	51.534717	-0.055188	1
Geoteric	https://www.geoteric.com/	54.972262	-1.605324	1
Geotree	http://geotree.com	50.917788	-1.401161	1
Geovation	https://geovation.uk/	51.524419	-0.099539	1		1.0
GFA Exchange	http://gfaexchange.com	52.482296	-1.903008	1
GFAIVE	https://www.gfaive.com/	51.514776	-0.102272	1
gigl	http://www.getgigl.com	51.525615	-0.083628	1
GLAMOROUS.AI	http://glamorous.ai/	51.509761	-0.220453	1
glass.ai	https://www.glass.ai	51.519048	-0.116782	1
Gleensite	http://gleensite.com	51.504891	-0.09104	1
GLIA Ecosystems	http://www.gliaecosystems.com	51.516376	-0.081206	1
Gliff.ai	http://gliff.ai	54.788774	-1.58518	1
Glimpse Analytics	https://www.glimpseanalytics.com	51.517295	-0.082265	1
Glisco.ai	http://www.glisco.ai	51.519112	-0.181704	1
Global Surface Intelligence	https://www.surfaceintelligence.com/	55.951049	-3.204297	1
GlobalABM	http://globalabm.com	51.37216	-0.462254	1
GlueCodes	https://www.glue.codes	52.150811	-0.474699	1
GluIQ	http://gluiq.com	54.77755	-1.567292	1
Go Transcribe	https://go-transcribe.com/	51.588246	-0.301721	1
Gold Standard Phantoms	http://www.goldstandardphantoms.com	51.56622	-0.122264	1
GoLearn Education Limited	http://www.golearn.guru	51.518467	-0.142405	1
Goodvision	https://goodvisionlive.com	51.514897	-0.123615	1
Google for Startups Cloud Program	https://cloud.google.com/startup	51.522586	-0.08537	1		1.0
GoSpace AI	http://www.gospace.com	51.514323	-0.132269	1
GPC	https://www.gpcsl.com/	51.664847	-3.91078	1
GQS Capital	http://gqscapital.com	51.512043	-0.143891	1
GradCircle	http://www.gradcircle.org/	51.753234	-1.254396	1
Gradient	https://www.gradient.co	51.451887	-2.594836	1
gradient·systems	https://www.gradient.systems	52.210024	0.14055	1
Gradingly	https://gradingly.com	50.867895	-0.791885	1
Granta Innovation	http://granta.io	52.212463	0.117993	1
Grapevine	https://www.grapevine.travel	51.510696	-0.225806	1
GraphAware	https://graphaware.com/	51.525615	-0.083628	1
Graphcore	https://www.graphcore.ai/	51.455325	-2.59242	1
Graphyte	http://graphyte.ai	51.499	-0.098706	1
Gravicus	https://gravicus.com/	51.512816	-0.086212	1
Gravitas AI	https://www.gravitas.ai	51.525615	-0.083628	1
Grayscale AI	https://grayscale.ai	51.622648	-0.105319	1
Greendeck	https://www.greendeck.co	51.527304	-0.088894	1
Greenhouse Intelligence	http://thegreenhouse.ai	51.466612	-0.265391	1
GreenShoot Labs	https://www.greenshootlabs.com/	51.533481	-0.125043	1
Greyfly	http://greyfly.ai/	51.490397	-2.761709	1
Greyparrot	https://greyparrot.ai/	51.526019	-0.208166	1
Grid Edge	http://www.gridedge.ai	52.48199	-1.892318	1
Grip	https://grip.events/	51.521691	-0.081633	1
GroundWOW	http://groundwow.com	53.398287	-2.358435	1
Growth Intelligence	http://growthintelligence.com	51.55032	-0.108178	1
Growth Squared	http://www.growthsquared.io	51.524074	-0.076689	1
GrowthEnabler	http://www.growthenabler.com	51.507383	-0.131313	1
Guidance Automation	http://www.guidanceautomation.com	52.602465	-1.19215	1
gweek	http://www.gweekspeech.com	51.519542	-0.098888	1
Gyana	http://www.gyana.space	51.516945	-0.077927	1
GymStreak	http://gymstreak.com	53.500722	-2.261067	1
H Robotics	http://www.hrobotics.com	51.526575	-0.250974	1
HadsUp	https://hadsup.com	51.511439	-0.592198	1
HaiX AI	http://haix.ai	51.518837	-0.102438	1
HAL Robotics	http://hal-robotics.com	51.525204	-0.057425	1
Handsteco	https://handsteco.com/	51.27295	0.395127	1
Hark	http://harksys.com	53.83165	-1.437663	1
HARNESS Data Intelligence	https://www.harnessdata.ai	51.50318	-0.115347	1
Hashani.Co.Uk	https://hashani.co.uk/	51.527304	-0.088894	1
Hatch Incubator	http://hatchenterprise.org/	51.488293	-0.093951	1		1.0
HausBots	https://hausbots.com	52.475239	-1.883457	1
Hawk-Eye Innovations	https://www.hawkeyeinnovations.com	51.243814	-1.098652	1
Hawkr	http://hawkr.io	54.970856	-1.615895	1
Hazy	https://hazy.com	51.515372	-0.072487	1
Headlight AI	http://www.headlight.ai/	51.524096	-0.096784	1
Health.ai Ventures	https://healthai.ventures	51.514897	-0.123615	1
Healthily	https://www.livehealthily.com/	51.517927	-0.114724	1
HealthUnlocked	https://healthunlocked.com/	51.52381	-0.109248	1
healthya	https://www.healthya.co.uk/	53.577291	-2.424769	1
Healthymity	https://healthymity.com	54.904153	-1.377346	1
Healx	https://healx.io/	52.196849	0.129235	1
Heart Screen UK Ltd	https://heartscreen.co.uk	51.506111	-0.13612	1
Heliocor	http://heliocor.com	51.517366	-0.080155	1
Hello Ara	https://www.helloara.io/	51.805649	-0.340466	1
HelloDone	http://hellodone.ai	51.524901	-0.107101	1
Hepian	http://hepian.co.uk	51.515768	-0.224009	1
Hero Labs	https://www.hero-labs.com	51.566259	-0.229227	1
Hertzian	http://www.hertzian.co.uk	50.26665	-5.097179	1
Heterogenius	http://heterogenius.co.uk	53.837272	-1.556817	1
Hexis Lab	http://www.hexislab.com/	54.973003	-1.624295	1
HexTransforma Healthcare Ltd	http://www.hexhealthcare.com	50.827937	-0.141323	1
Heyr	http://heyr.app	51.527304	-0.088894	1
Hira	http://www.atomichire.com	51.497023	-0.136909	1
HireBee.ai	https://www.hirebee.ai	51.519191	-0.107768	1
HireXtra	http://www.hirextra.com/	51.504937	-0.019523	1
Hive Logic	http://hivelogic.co.uk	51.506738	-0.088498	1
HLTH	https://dna.hlth.network/	51.494769	-0.322378	1
HME Partnership	http://hme.uk.com	51.803171	1.155359	1
Holborn Wells India	http://www.holbornwells.com	51.494663	-0.276038	1
Holistic AI	https://www.holisticai.com/	51.515941	-0.131712	1
Holly Health	http://www.hollyhealth.io	51.527689	-0.080011	1
Holon$ Tokens ~ DLT Holon$ Bank Hybrid Network Project	http://holon.uk/	51.588244	-0.551787	1
Homesearch	https://homesearch.co.uk	51.513056	-0.188527	1
Honest AI	https://www.thehonestai.com	51.503692	-0.01491	1
Hoola	http://www.hoola.technology	51.527304	-0.088894	1
HOOLEY RESEARCH LTD	https://www.hooleyresearch.co.uk	52.195733	0.127541	1
Hoptroff	https://www.hoptroff.com/	51.514394	-0.110921	1
Horsefly	http://horseflyanalytics.com	53.448331	-2.843151	1
Hostcomm	https://www.hostcomm.co.uk/	50.722686	-3.527245	1
Hotelmize	http://hotelmize.com	51.518467	-0.142405	1
Houseprice.AI	http://www.houseprice.ai	51.521236	-0.087488	1
houzen	http://www.houzen.co.uk	51.517876	-0.087686	1
Hovering Solutions	http://www.hoveringsolutions.com	51.412407	-0.207554	1
How.to	http://how.to	51.526418	-0.078275	1
Hoxton Ai	https://www.hoxton.ai/home	51.523193	-0.083413	1
HPO Risk Solutions Ltd	https://hporisksolutions.com	52.303869	-0.698281	1
HS3 Project	https://h-s3.com/	51.752882	-0.242179	1
Hult Prize at UWE Bristol	https://www.hultprize.org	51.501079	-2.547458	1		1.0
Huma	https://huma.com/	51.491983	-0.125907	1
HUMAN INTELLIGENCE LTD	http://www.hi-humanintelligence.com	53.628187	-0.953709	1
Human Resources Intelligence	http://www.humanresourcesintelligence.com	56.484041	-2.840513	1
Human Robotix	https://humanrobotix.co.uk/	51.506676	-0.27838	1
Humandrive	http://humandrive.co.uk	52.036554	-0.767241	1
Humanise.AI	https://humanise.ai	51.519712	-0.087782	1
Humanising Autonomy	https://www.humanisingautonomy.com/	51.510925	-0.117708	1
Humanloop	https://humanloop.com	51.553357	-0.14345	1
Hummingbird Technologies	http://hummingbirdtech.com/	51.514916	-0.132806	1
Humn.ai	https://www.humn.ai	51.494219	-0.225669	1
HyBird Technologies	http://www.hybirdtech.com	51.5495	-0.143885	1
Hyper-Group	http://hyper-group.co.uk	51.150391	0.87314	1
Hypergolic	https://hypergolic.co.uk	50.837127	-0.14573	1
Hypersurfaces	http://hypersurfaces.com	51.521036	-0.081185	1
Hypervine	http://hypervine.io/	55.859634	-4.251694	1
Hypervision Surgical	https://hypervisionsurgical.com	51.518467	-0.142405	1
I-LAPS	http://i-laps.com	51.514012	-0.307222	1
i2i Pipelines	http://i2ipipelines.com	53.463089	-2.238424	1
iAbra	http://www.iabra.ai	51.947158	-0.53319	1
IBEX Innovations	http://www.ibexinnovations.co.uk	54.671341	-1.452439	1
iCAIRD	http://icaird.com	55.862646	-4.338118	1
ICR Speech Solutions	https://www.weconnect.tech/what-we-do/contact-centre-solutions/voice-bots-ai/	51.512986	-0.077776	1
ICS AI Ltd	https://www.ics.ai/	51.281315	-1.060219	1
Idea Labz	https://idealabz.co.uk	51.497421	-0.141604	1
iDoc.ai	https://idoc.ai/	51.56971	-1.825158	1
IDWise	http://www.idwise.com	51.514897	-0.123615	1
iEthico	https://iethico.com	51.527304	-0.088894	1
ievo	https://ievoreader.com/	55.009087	-1.491538	1
Ignition Ai	http://www.ignition.ai	51.520362	-0.107189	1
IKVA	https://ikva.ai/	52.210945	0.09172	1
ILASP	http://ilasp.com	53.72775	-0.533967	1
Illuma	https://weareilluma.com/	51.519989	-0.098037	1
Illumr	http://illumr.com/	51.463981	-0.113021	1
iLoF - Intelligent Lab on Fiber	http://ilof.tech	51.753231	-1.266054	1
Image Analysis	http://www.ia-grp.com	51.51636	-0.094455	1
Image Analyzer	http://www.image-analyzer.com	51.81205	-2.270999	1
Imense	https://imense.co.uk	52.220458	0.133409	1
IMERA.AI	http://www.imera.ai	51.625913	-0.15238	1
Immune Compass	http://immunecompass.com	51.521263	-0.076923	1
Immunidex	https://immunidex.com	51.523127	-0.086993	1
impact RI	http://www.impactri.com	51.847987	-1.350663	1
Impair	http://www.carguide.co.uk	51.672535	-1.281491	1
IMRE	http://www.imre.uk	51.820425	-0.837602	1
IMS Evolve	http://www.ims-evolve.com	52.040175	-0.769713	1
Imtiaz Capital	http://imtiaz.capital	51.509001	-0.085522	1
INATIGO	https://www.inatigo.com	51.530785	-0.093391	1
Inavya Ventures Ltd.	https://www.avatr.ai/	51.503409	-0.09613	1
Inawisdom	https://www.inawisdom.com	52.058954	1.279001	1
inbeta.io	https://www.inbeta.io	51.509011	-0.143644	1
Incendium AI	https://incendium.ai/	51.520592	-0.12221	1
Increasingly	http://www.increasingly.com	51.55032	-0.108178	1
INCUS Performance	http://incusperformance.com	52.761266	-1.247425	1
Indikeit	https://indikeit.com	53.380379	-1.462775	1
Industrial Vision Systems	http://industrialvision.co.uk	51.577231	-1.312127	1
IndustriGen	http://www.industrigen.com	53.476377	-2.250416	1
Industy 4.0 Accelerator	http://www.thedigitalcity.com	54.570374	-1.236984	1		1.0
INEVITABLE	http://inevitableinnovations.com/	53.477953	-2.25642	1
Infer Systems Ltd.	http://www.infer.systems	51.527304	-0.088894	1
Inferret	https://www.inferret.com	52.274881	-0.850668	1
Inferrix	http://inferrix.com	51.50719	-0.131624	1
InferSens	http://www.infersens.com	52.233766	0.146114	1
Infinite Minds	https://infiniteminds.ai	56.084869	-3.564029	1
Infix Support	http://infixsupport.com/	55.953377	-3.248508	1
InfloAi	http://www.inflo.ai	51.469906	-0.068213	1
Influence Network	http://influence.network	51.530785	-0.093391	1
Influxbot Ltd	https://www.influxbot.io	51.411713	0.011418	1
Infogistics	http://www.infogistics.com	55.942948	-3.067504	1
Infogrid	http://www.infogrid.io	51.506698	-0.106401	1
Informer	https://informer.io	50.833404	-0.140339	1
Infoscience Technologies	http://infosciencetechnologies.com	51.604632	-1.134861	1
InfoSum	https://www.infosum.com/	51.518336	-0.118242	1
Initsys Robot Technology	https://www.initsys.net	51.530785	-0.093391	1
Inivito	http://inivito.com	51.597039	0.026874	1
Innersight	https://innersightlabs.com/	51.49994	-0.116205	1
InnerTrends	http://www.innertrends.com	51.514897	-0.123615	1
Innovair	https://www.innovair.co.uk/	57.190922	-2.082338	1
Innovation Martlesham Incubator Facility	http://atadastral.co.uk	52.060475	1.191243	1		1.0
Innovation SuperNetwork	http://supernetwork.org.uk	54.918333	-1.415023	1		1.0
InReach Ventures	https://www.inreachventures.com/	51.502486	-0.110653	1
InScribe - ML Handwriting Tool for iPad	https://ml-dataset-preperation-tool.web.app	51.530785	-0.093391	1
INSIDER	https://useinsider.com/	51.510769	-0.138269	1
Insig AI	https://insg.ai/	51.493102	-0.146519	1
Insight to action	http://effortlesscx.com/	51.519929	-0.132951	1
InsightBrief	https://www.insightbrief.net	51.493445	-0.217972	1
Insiris	https://www.insiris.com/	53.755722	-2.702558	1
Inspection2	http://inspection2.ai	51.513658	-0.115996	1
Inspecvision	http://inspecvision.com	54.679818	-5.99666	1
InstaDeep	https://www.instadeep.com/	51.518849	-0.17361	1
Instill AI	https://instill.tech/	51.518467	-0.142405	1
Instrumental	https://www.weareinstrumental.com	51.500087	-0.08431	1
Insure Telematics Solutions	https://www.insure-telematics.com	52.544071	-0.257658	1
InsurTech Gateway	http://www.insurtechgateway.com/	51.505836	-0.10492	1		1.0
Integra Voice Ltd	http://www.integravoice.com	51.46372	-0.30247	1
Integration Wizards Solutions Europe	https://www.iwizardsolutions.com/	51.460574	-0.93245	1
Intelfin Global	https://intelfin.io/	51.499423	-0.19666	1
Intelistyle	https://www.intelistyle.com/	51.527304	-0.088894	1
Intellas	https://www.intellas.biz/	51.498848	-0.014574	1
Intellegens	https://intellegens.com	52.214018	0.125064	1
IntelliAgent	http://intelliagent.io	51.504484	-0.426442	1
IntelliAqua Ltd	http://www.intelliaqua.com	51.530785	-0.093391	1
IntelliBonds	https://intellibonds.com	51.504937	-0.019523	1
Intelligent AI	https://intelligentai.co.uk	50.715241	-3.529156	1
Intelligent Health AI	https://intelligenthealth.ai/all-events/	51.704575	-0.034497	1
Intelligent OMICS Ltd	http://www.intellomx.com	52.951052	-1.137299	1
Intelligent Play Ltd	http://www.intelligent-play.co.uk/	53.099473	-1.263819	1
Intelligent Ultrasound	http://www.intelligentultrasound.com	51.479842	-3.179616	1
Intelligent Voice	http://www.intelligentvoice.com/	51.512324	-0.075366	1
IntelliGiants	http://www.intelligiants.com	51.797878	-0.764011	1
Intellimation.ai	https://www.intellimation.ai	51.527304	-0.088894	1
Intellimorph	http://intellimorph.ai/	51.501694	-0.092398	1
IntelliPass Ltd	http://www.ipss.uk	51.530234	-0.272763	1
IntelliSense.io	https://www.intellisense.io/	52.194361	0.135318	1
Intellitect Water Limited	http://www.intellitect-water.co.uk	50.983133	-1.463429	1
intellithing Ltd.	http://intellithing.tech	53.492945	-2.226548	1
Intellium AI	http://ai-labs.co.uk	51.500942	-2.477598	1
IntellSense	http://intellsenseltd.com	51.515527	-0.097009	1
Intent HQ	http://www.intenthq.com	51.509012	-0.1325	1
Interactive Coventry	http://interactivecoventry.com	52.402958	-1.504161	1
Interax.ai	http://www.interax.ai	51.343725	-0.263257	1
Interlink Software	https://www.interlinksoftware.com/	53.348779	-2.211286	1
International Magazine Centre	https://internationalmagazinecentre.com/	56.21488	-3.193644	1		1.0
Interrodata	http://www.interrodata.com	51.370458	-0.445637	1
InterVision Global	https://www.intervisionglobal.com/	52.341871	-1.504922	1
Intoolab	http://www.intoolab.com	51.514897	-0.123615	1
Intrro	http://intrro.com	51.527772	-0.086882	1
Intruder Watch	http://intruderwatch.co.uk	51.342245	-0.822386	1
Intuceo	http://intuceo.co.uk	51.530785	-0.093391	1
INVECHADS LTD	http://www.invechads.com	51.77852	-1.266862	1
Invenia Labs	http://invenialabs.com	52.199672	0.127248	1
investUP	https://www.investup.co/	51.527772	-0.086882	1
Invictus Leader Pte Ltd	http://www.invictusleader.com	57.472453	-4.186619	1
Inzura - Creators of the iApprove Digital Insurance App	http://www.inzura.ai	51.240262	-0.612113	1
IOT Tribe	http://iottribe.org/	51.514897	-0.123615	1		1.0
IPI Cloud AI	https://ipintegration.com/ipi-cloud-ai/	51.443941	-1.064323	1
iProov	https://www.iproov.com/	51.503492	-0.11564	1
Iprova	http://www.iprova.com	52.805777	-2.11867	1
Ipsotek Ltd	http://www.ipsotek.com	51.420172	-0.209015	1
Iqblade	http://www.iqblade.com	53.403908	-2.971225	1
Is Anybody There?	https://isanybodythere.co.uk/	52.44592	-1.889287	1
Isansys Lifecare	http://www.isansys.com	51.621207	-1.298581	1
iSize Technologies	http://www.isize.co	51.506723	-0.052042	1
iStein Neural Networks	https://istein.ai	53.814971	-1.568473	1
itcher	http://itcher.com/	51.48725	-0.115673	1
Itrs Group	http://www.itrsgroup.com	51.522809	-0.085274	1
Ivefi.ai	http://iverif.ai/	53.00817	-2.166815	1
IVF20.ai	http://www.ivf20.ai	51.523081	-0.139031	1
IXICO	http://www.ixico.com	51.519788	-0.098967	1
Javelyn Technology	http://www.javelyn.io	51.514772	-0.072095	1		1.0
JCW Group	http://www.jcwgroup.com	51.516696	-0.083181	1		1.0
JECT.AI	https://ject.ai/	51.527704	-0.102614	1
Jem POS	https://jempos.co.uk/	51.519829	-0.631648	1
JobRocket	http://jobrocket.co.uk	51.514897	-0.123615	1
Jotup	http://jotup.co	51.516947	-0.104733	1
Jumping Rivers	https://www.jumpingrivers.com	54.973003	-1.624295	1
Juno Bio	https://juno.bio	51.494152	-0.062881	1
Juro	https://www.juro.com	51.523177	-0.104434	1
Just AI	https://just-ai.com/en/	51.527304	-0.088894	1
JUUBIX	http://juubix.co.uk	51.550658	-0.085187	1
Kabod Analytics	https://kabodanalytics.com/	53.61119	-2.295031	1
KageNova	https://www.kagenova.com/	51.240161	-0.581524	1
KAI Conversations Limited	http://www.kaiconversations.com	51.544038	-0.83276	1
Kainotomo Solutions	http://kainotomo.co.uk	51.498499	-0.112817	1
Kaizen Languages	https://www.kaizenlanguages.com/	51.527304	-0.088894	1
Kaktus AI	http://kaktus.ai/	51.530785	-0.093391	1
Kami	https://kami.ai/	51.504937	-0.019523	1
Kamua	http://kamua.com	51.410878	-0.185354	1
Kanbina	https://www.kanbina.ai/	51.516945	-0.077927	1
Kando	https://kando.tech/	51.528539	-0.127131	1
Kapital	https://kapital.global	51.393112	-0.628762	1
Karakuri	http://www.karakuri.com	51.489674	-0.221236	1
Kare	https://karehq.com/	51.518925	-0.111382	1
Karno	https://karno.is	51.452873	-2.590458	1
Katana Labs	https://www.katanalabs.io	51.515797	-0.089145	1
KATLAS Technology	http://katlastechnology.com/	51.508891	-0.144711	1
Keen AI	http://www.keen-ai.com/	52.44592	-1.889287	1
Kemuri	http://kemuri.co.uk	51.313241	-0.611242	1
Kensai	https://kensai.tech	51.529853	-0.129485	1
KeyPoint Technologies	http://www.keypoint-tech.com/	55.859653	-4.359002	1
Kheiron	https://www.kheironmed.com/	51.524561	-0.092757	1
Kieli Localization	https://kieli.co.uk	51.494372	-0.157531	1
Kingfisher Labs	http://www.kingfisherlabs.co.uk	52.202977	0.138909	1
Kingpin Communications	http://kingpincomms.com/	51.509781	-0.131662	1
KINTARA	https://kintara.io	51.514897	-0.123615	1
Kiroku	http://www.trykiroku.com	52.667388	1.275116	1
Kirontech	http://www.kirontech.com	52.207792	0.135203	1
KisanHub	https://www.kisanhub.com/	52.234821	0.129527	1
KITE EDGE LTD	http://www.kiteedge.co.uk/	51.514925	-0.075501	1
KIVALUE	http://ki-value.com	51.501685	-0.192196	1
Klarity.io	https://www.getklarity.io	51.518879	-0.133095	1
Kleecks	http://www.kleecks.com	51.519286	-0.130945	1
kleene.ai	http://www.kleene.ai	51.516949	-0.083805	1
Klydo	https://klydo.ai/	51.504642	-0.08899	1
KnowAll	http://www.knowall.ai	52.233766	0.146114	1
Knowledgator	http://knowledgator.com	51.574609	-0.428063	1
Knowlistics Limited	http://knowlistics.com	51.530785	-0.093391	1
KnowNow Information Ltd	http://www.kn-i.com	50.793584	-1.095646	1
Knowsis	http://www.knowsis.com	51.498489	-0.166504	1
Koble	https://www.koble.ai	51.524388	-0.082296	1
Koho.ai	http://www.koho.ai	51.592331	-0.203031	1
Kokoon Technology	http://www.kokoon.io	51.494152	-0.062881	1
Kolleno	https://www.kolleno.com	51.516947	-0.104733	1
Kompli-Global	https://www.kompli-global.com	51.520991	-0.100659	1
Koobli	http://koobli.co	51.504937	-0.019523	1
Koodaa Ltd	http://koodaa.com	51.514897	-0.123615	1
Kooling	http://www.kooling.io	51.512967	-0.13525	1
Kortical	https://kortical.com	51.502719	-0.110038	1
KQ Labs	http://www.crick.ac.uk/kq-labs	51.531854	-0.128033	1		1.0
KQ Liverpool Accelerator	http://www.kqliverpool.co.uk/spaces/accelerator/	53.409654	-2.96755	1		1.0
KrakenFlex	https://www.krakenflex.com/	53.483356	-2.233848	1
Kreo Software	http://www.kreo.net	51.514897	-0.123615	1
Kristalic	http://www.kristalic.com	52.198361	0.120673	1
Kuano	https://www.kuano.ai/	52.153615	0.091763	1
Kubesee Ltd	https://www.kubesee.com/	51.590093	-1.440189	1
Kvasir Technologies	http://www.kvasir.ai	51.513336	-0.091105	1
Kwiziq	https://www.kwiziq.com/	52.292401	-1.532554	1
KYC Hub	https://www.kychub.com/	51.559258	-0.196434	1
Kythera	http://kythera.ai	55.946941	-3.201752	1
L Marks	https://lmarks.com/	53.477442	-2.243173	1		1.0
L3C Cloud	http://www.l3c.cloud	51.514455	-0.111772	1
LabGenius	http://www.labgeni.us/	51.494152	-0.062881	1
Labrika SEO toolset	https://labrika.com	51.525615	-0.083628	1
Laightning	https://laightning.com/	51.527304	-0.088894	1
LandTech	http://landenhance.io	51.516945	-0.077927	1
LatentBridge	http://latentbridge.com	51.523535	-0.142718	1
Latsen Technology LTD	https://latsen.com/	51.530785	-0.093391	1
Law Notion	https://lawnotion.co.uk/	51.52208	-0.086314	1
learnAh	http://learnah.org	51.522658	-0.032117	1
Leftbrain Technology	http://leftbraintechnology.com	51.506554	-0.135054	1
Legal Utopia	http://legalutopia.co.uk	51.516961	-0.120561	1
Legal Workflow	http://legalworkflow.com	50.821461	-0.805544	1
Legli	http://www.legli.com	51.459493	-2.609128	1
LEM Verify	http://lemverify.com	51.501685	-0.192196	1
lens.ai	https://www.lens.ai/	51.794484	-0.080125	1
Lenus Health	https://lenushealth.com/	55.974835	-3.16677	1
Let's Chat Ethics	http://www.letschatethics.co.uk	51.948803	0.022091	1
Level39	http://www.level39.co/news/level39/	51.504937	-0.019523	1		1.0
Lexical Labs	http://www.lexicallabs.com/	51.523891	-0.083802	1
Lexicon	http://www.lexiconuk.com	51.527304	-0.088894	1
Lexplore Analytics UK	http://www.lexplore-analytics.co.uk	53.399166	-2.153407	1
LFR Investment Analytics	https://www.investmentanalytics.co.uk	51.514893	-0.086773	1
LGN	http://lgn.ai	51.520592	-0.12221	1
Libra MLI	http://libramli.co.uk	55.978744	-3.180303	1
LIBRA MLI LTD	https://www.libramli.ai/	55.894439	-3.217638	1
Lifebit	https://lifebit.ai/	51.521691	-0.081633	1
lifesdna - wellness wellbeing healthcare data blockchain, AI powered search engine marketplace	https://www.lifesdna.com	51.519458	-0.153305	1
Lightfi - True Retrofit Solution	http://www.lightfi.io	51.524854	-0.092543	1
Lilheads	http://lilheads.com	51.520991	-0.100659	1
Limbic	https://limbic.ai/	51.527304	-0.088894	1
Limejump	http://www.limejump.com/	51.480402	-0.110227	1
Limitless Insights	https://limitlessinsights.com	54.613625	-5.898562	1
Lineal	http://www.linealservices.com	51.520037	-0.087898	1
Linguamatics	http://www.linguamatics.com	52.235791	0.137323	1
Lingvist	https://lingvist.com	51.522586	-0.08537	1
Liopa	http://www.liopa.ai	54.613625	-5.898562	1
Liqural	http://www.liqural.com	51.513597	-0.035534	1
Litha Group	http://www.litha.org	52.626216	-1.120097	1
Little Nudge	http://littlenudge.io	51.5854	-0.114863	1
Lloyd's List Intelligence	http://lloydslistintelligence.com	51.496693	-0.13649	1
Lobster	http://lobster.media	51.547521	-0.022262	1
Locomizer	http://locomizer.com	51.517327	-0.142383	1
LodeStar Ecosystems Limited	http://www.lodestar-ecosystems.com	51.885679	0.894248	1
Logic Programming Associates	http://www.lpa.co.uk	51.509117	-0.194937	1
Logically	https://www.logically.ai	51.514484	-0.080463	1
Lokulus	http://lokulus.com	53.275341	-2.225528	1
Longlive	http://www.longliveapp.com	51.498694	-0.116415	1
Loomi.ai	http://www.loomi.ai	51.3807	-0.007689	1
LoopMe	https://loopme.com	51.520615	-0.106844	1
Loopserv LTD.	https://www.loopserv.com/	54.974639	-1.601207	1
Love the Sales	https://www.lovethesales.com	51.523557	-0.081915	1
LOYAL AI	http://loyal.ai	51.522662	-0.107768	1
Loyalty Boomerang	http://loyaltyboomerang.com	51.534239	-0.121995	1
LQA	https://www.leadingquality.com	51.388081	0.076365	1
Lucida Medical Ltd	https://lucidamedical.com	52.173912	0.138099	1
Luckytrip	https://luckytrip.co.uk/	51.554761	-0.067115	1
Lumenai	http://www.lumenai.tech	51.037052	-2.273426	1
Lumiere Property	https://www.lumiereproperty.co.uk/	51.127927	0.262026	1
Lumilinks	http://lumilinks.com	51.520317	-0.105674	1
Lupovis	http://www.lupovis.io	55.863145	-4.258689	1
Luxury Promise	http://www.luxurypromise.com	51.501529	-0.163082	1
Maaind	http://www.maaind.com	51.532863	-0.110058	1
Machine Intelligence Garage	https://migarage.digicatapult.org.uk/about-mi-garage/	51.528539	-0.127131	1		1.0
MACHINE INTELLIGENCE LTD	http://www.machineintelligence.co.uk	51.123699	-3.455525	1
Machine Medicine	http://machinemedicine.com/	51.500087	-0.08431	1
Machines With Vision	http://www.machineswithvision.com	55.947094	-3.202621	1
Macrina Investment Management	http://macrina.co.uk	51.509878	-0.144584	1
Macsim Associates	http://macsimassociates.co.uk	51.516119	-0.188895	1
macusoft	http://macusoft.com	51.498694	-0.116415	1
MADEIND8R	https://madeind8r.com/	51.527304	-0.088894	1
MadLab Arts & Tech Accelerator	https://madlab.org.uk/	53.484322	-2.236581	1		1.0
Mafic	http://mafic.ltd	51.240262	-0.612113	1
Magna Technologies Ltd	https://www.magna-technology.com	51.732993	-1.20884	1
Maiple	http://maiple.com	51.362333	-1.396145	1
Maji	http://www.maji.io	51.513832	-0.102112	1
Makee Design	http://www.visionexperts.co.uk	51.214063	-0.74813	1
Man Group	http://www.man.com/gpm-aalto	51.507724	-0.145392	1
Manas AI	https://manas.ai/	51.480802	-0.202724	1
Manchester Imaging	http://manchester-imaging.com/	53.487362	-2.227212	1
Manifold Research	http://manifoldresearch.com	52.235272	0.153729	1
Mantle Labs	http://www.mantle-labs.com/	50.917788	-1.401161	1
Manufactory	https://manufactory.ai	51.88645	-2.080562	1
MAP | Media Audit Platform	http://the-map.io	51.508283	-0.19742	1
MapMyMind	https://mapmymind.co.uk/	52.50184	-1.928347	1
MARKETAI	http://www.marketai.co.uk	53.004536	-1.191729	1
MASS Analytics	http://www.mass-analytics.com/	51.446404	-0.382879	1
Massive Analytic	http://www.massiveanalytic.com	51.521843	-0.084997	1
MatchingMind	https://www.matchingmind.com/	51.501006	-0.041407	1
Materialize.X	http://www.materializex.com/	51.498317	-0.176923	1
Materials Nexus	http://materialsnexus.com	51.420064	-0.309495	1
Math Labs	http://mathlabs.co.uk	51.412407	-0.207554	1
Matrix CPM	http://matrix-cpm.com	51.489933	-3.180266	1
Maxatta	http://www.maxatta.com	51.522322	-0.136554	1
Maybe*	http://www.maybetech.com	52.923301	-2.549081	1
McKarthy Labs	http://mckarthylabs.com	51.530064	-0.284957	1
MDOTM	https://www.mdotm.eu	51.516961	-0.120561	1
Meal IQ	http://meal-iq.com	51.519712	-0.087782	1
Measmerize	http://www.measmerize.com	51.514897	-0.123615	1
measurable.energy	https://measurable.energy	51.454364	-0.976367	1
Measured Group	https://www.measured.agency/	51.527447	-0.088297	1
Mebomine	https://mebomine.com/	52.245354	0.106009	1
MedCircuit	https://www.medcircuit.com/	53.462959	-2.217351	1
MEDGURU	http://www.medguru.digital	53.008291	-2.224327	1
Media AID	http://mediaaid.uk	51.401071	-0.242833	1
Medicare Network	https://www.mednetsec.com	51.469403	-0.265564	1
MediLiVes	http://medilives.co.uk	51.507604	-0.073723	1
MedimSight	https://www.medimsight.com	51.530785	-0.093391	1
Medopad	http://www.medopad.com	51.491983	-0.125907	1
Medtech Accelerator	http://www.medtechaccelerator.co.uk/	52.244873	0.16735	1		1.0
Medwise.ai	http://www.medwise.ai/	51.514897	-0.123615	1
Meeow	https://www.meeow.com	53.797875	-1.553619	1
Melanin Matchmaker	http://www.melaninmatchmaker.co.uk	51.514897	-0.123615	1
Melior.AI	https://melior.ai	51.667169	-0.37169	1
Mentat Innovations	http://www.ment.at	51.523999	-0.110394	1
Mentionlytics	http://mentionlytics.com	51.530785	-0.093391	1
Mercuna	https://mercuna.com	55.946941	-3.201752	1
Mercury Labs	https://mercurylabs.io	51.493534	-0.148205	1
Mesg.ai	https://mesg.ai	51.514897	-0.123615	1
Mesh-AI	http://www.mesh-ai.com	50.723629	-1.958467	1
Mesmerix	http://mesmerix.co.uk	51.377997	-2.36067	1
Metadvice	https://www.metadvice.net/	51.506111	-0.13612	1
Metafused	http://www.metafused.com	51.522586	-0.08537	1
Metageni	http://www.metageni.com	51.521351	-0.104017	1
Metail	https://metail.com/	52.202652	0.124536	1
Metanoia	http://www.metanoia.co.uk	51.518543	-0.273926	1
Metaphysic	https://metaphysic.ai	51.513182	-0.133483	1
Method Analytics	http://method-analytics.com	53.790877	-1.552175	1
Metis Analytics	http://metisanalytics.co.uk	51.514897	-0.123615	1
Metisox	https://metisox.com/	52.245354	0.106009	1
Mettle Capital	http://www.mettle.capital	51.436365	-0.043468	1
MICRA - Midlands Innovation Commercialisation of Research Accelerator	http://www.micragateway.org	52.453282	-1.92789	1		1.0
Micrima Limited	http://www.micrima.com	51.452049	-2.580762	1
Microblink	https://microblink.com/?utm_source=crunchbase&utm_medium=social&utm_campaign=crunchbase-page-info&utm_content=web-site	51.523126	-0.097949	1
Micrographia Bio	http://www.micrographiabio.com	51.480741	-0.200465	1
Microsoft SwiftKey	https://www.microsoft.com/en-us/swiftkey	51.502964	-0.095734	1
Mifraneil Digital	http://www.mifraneildigital.com	51.514897	-0.123615	1
Migacore Technologies	https://migacore.com/	51.588873	-0.057133	1
Miicare	http://miicare.co.uk	51.520592	-0.12221	1
Millimetric.ai	https://www.millimetric.ai	51.547405	-0.179678	1
Miltech-AI UK Ltd	http://www.miltech-ai.com	55.851073	-4.222598	1
Mimica	https://mimica.ai/	51.504656	-0.088617	1
Mimosil Technology	http://www.mimosil.com	51.127219	0.260062	1
Mind Foundry	http://mindfoundry.ai/	51.776788	-1.262545	1
Mind Senses Global	http://mindsenses.co.uk	51.514897	-0.123615	1
Mindset AI	https://www.mindset.ai/	51.586988	-0.230528	1
Mindstep	https://letsmindstep.com/	51.514394	-0.110921	1
Mindsync	http://mindsync.ai	51.521331	-0.15689	1
Mindtech	http://www.mindtech.global	51.70743	-0.441084	1
Mindtrace	http://www.mindtrace.ai	53.481196	-2.249601	1
MindVisionLabs	http://mindvisionlabs.com	51.533075	-0.105534	1
MindX	https://mindx.co/	51.507217	-0.142906	1
Mindzilla	https://mindzilla.com	51.523617	-0.085197	1
MINERVA	http://minerva.science/	52.454995	-2.042464	1
MIRALIS DATA	http://www.miralis.co.uk	54.044689	-2.797448	1
Mirriad Advertising	https://www.mirriadplc.com	51.501741	-0.10084	1
Mishi Software Limited	https://www.mishi.ai	51.547632	0.664393	1
MITA AI LTD	http://www.mita.ai	52.953042	-1.187119	1
Mithras Technologies	http://mithras-tech.co.uk	51.559644	-0.930175	1
MO Intelligence	http://mointelligence.com	51.778903	-1.265801	1
Mobihealth International	https://www.mobihealthinternational.com	51.514897	-0.123615	1
mobile Acuity	https://www.mobileacuity.com	55.955279	-3.194434	1
Mobilized Construction	https://www.mobilizedconstruction.com/	51.482397	-3.169616	1
Mobilus Labs	http://mobiluslabs.com/	51.525322	-0.09643	1
MoCaX Intelligence	http://www.mocaxintelligence.com	51.468592	-0.209251	1
MODAL	http://www.modal.systems	51.486679	-0.180201	1
Model Office	https://www.model-office.co.uk	51.652805	-0.198751	1
Mogees	https://www.mogees.co.uk/	51.537645	-0.057283	1
MOLE	http://mole.energy	51.240262	-0.612113	1
Moleculomics	http://www.moleculomics.com	51.609627	-3.980616	1
Moley Robotics	http://www.moley.com/	51.493529	-0.230084	1
Molfar Technologies	http://molfar.tech	51.517491	-0.125148	1
Molo	http://www.molofinance.com	51.49321	-0.14358	1
Moment One	https://www.momentone.io/	55.947888	-3.208699	1
Momentum Data	http://momentumdata.co.uk	51.749541	-0.334431	1
Monolith AI	https://www.monolithai.com/	51.501645	-0.189647	1
Moonsift	http://www.moonsift.com	51.524452	-0.087745	1
moretho	https://moretho.com	53.513808	-2.235436	1
MortgageLadder	http://www.mortgageladder.com	51.527304	-0.088894	1
Mosaic Smart Data	http://mosaicsmartdata.com/	51.517326	-0.085936	1
MosaiQ Labs	https://www.mosaiqlabs.com/	51.519615	-0.142762	1
MOV.AI	http://mov.ai/	51.544097	-0.139097	1
MQube	http://www.mqube.com	51.235407	-0.578747	1
MTC Product Manufacturing Incubator	http://www.the-mtc.org/pmi	52.430812	-1.403385	1		1.0
Mudano	https://mudano.com	51.514541	-0.08614	1
Multiomic Health	http://www.multiomic.health	51.468623	-0.221372	1
MultiplAI Health	http://www.multiplaihealth.com	51.511833	-0.108217	1
MV37	https://mv37.io	51.516376	-0.081206	1
MXX	https://www.mxxmusic.com	51.477888	-0.20857	1
My Customer Lens	http://www.mycustomerlens.com	55.861589	-4.259254	1
My Social Pulse	https://www.mysocialpulse.com	51.617461	-0.435177	1
My Voice AI	http://www.myvoice.ai	51.512845	-0.078673	1
MyMaskFit	http://www.mymaskfit.co.uk	51.623299	-3.991541	1
myned ai	https://www.myned.ai	51.525878	-0.097558	1
MyPAM	http://www.mypam.tech	53.477108	-2.243683	1
Myrtle Software	http://myrtle.ai	52.202652	0.124536	1
MyScout	http://www.myscout.club	51.502013	-0.024765	1
Mystic	https://mystic.ai	51.382828	-2.359875	1
MyStreet App	https://mystreet.io/	51.59792	-0.349103	1
myTamarin	http://www.mytamarin.com	51.611064	-0.178421	1
Nalex.ai	https://www.nalex.ai/	51.527304	-0.088894	1
Nanna Therapeutics	http://nannatherapeutics.com	52.196536	0.1718	1
Nano Interactive	http://www.nanointeractive.com	51.517204	-0.13348	1
Napier AI	http://www.napier.ai	51.513336	-0.091105	1
NativeLOOK	http://www.nativelook.com	51.550642	-0.165788	1
Natter.ai	http://natter.ai/	51.872362	-1.481472	1
Naxxar Technology	http://www.naxxar.uk	51.527304	-0.088894	1
Nci Labs	https://ncilabs.co.uk	51.581946	-0.237476	1
NCTech	https://www.nctechimaging.com/	55.944739	-3.195343	1
Nebuli	https://nebuli.com	51.519712	-0.087782	1
Neso Technology	http://www.nesotechnology.com	51.491101	-0.095174	1
Net AI	https://netai.tech	55.948101	-3.211252	1
Net0	https://net0.com/	51.507856	-0.141828	1
Netacea	http://www.netacea.com	53.483332	-2.246855	1
NeuCurrent	https://neucurrent.com/	51.417882	-0.081927	1
Neudata	https://www.neudata.co/	51.513275	-0.09066	1
Neural Alpha	http://neuralalpha.com	51.469578	-0.128355	1
Neural Capital (UK)	https://www.neuralcapital.com/	51.240262	-0.612113	1
Neural Edge	https://neuraledge.digital	50.883508	-2.798194	1
Neural Foundry Limited	http://www.neuralfoundry.co.uk	51.508836	-0.437036	1
Neural Guard	http://neuralguard.com	51.605113	-0.188692	1
Neural Machines	https://www.neuralmachines.co.uk/	51.511572	-0.093069	1
Neural Soft Solutions	http://www.neuralsoftsolutions.com	51.530785	-0.093391	1
Neural Technologies	https://www.neuralt.com/	51.002977	-0.950343	1
Neuralfinity	https://www.neuralfinity.com/	51.527304	-0.088894	1
NeuralRays AI	https://neuralrays.ai/	51.530785	-0.093391	1
NeuralSpace	http://www.neuralspace.ai	51.573072	-0.085331	1
NeuralTrading.Group	https://www.neuraltrading.group	51.530785	-0.093391	1
Neurence	http://neurence.com/	51.507564	-0.126756	1
neuriver.ai	http://www.neuriver.ai	51.514897	-0.123615	1
Neurocreate	http://www.neurocreate.co.uk	51.510925	-0.117708	1
Neurolabs	http://www.neurolabs.ai	55.94527	-3.186426	1
NeuroNav	http://neuronav.ai	53.395191	-2.980741	1
Neurons Lab	http://neurons-lab.com	51.529267	-0.088088	1
Neurosight	http://www.neurosight.io	51.279291	1.077983	1
Neurotops	http://www.neurotops.com	51.527304	-0.088894	1
Neustan Ltd	https://neustan.wordpress.com/	51.601762	-0.403213	1
New Future Foundation	http://newfuture.foundation	50.710484	-3.455901	1		1.0
New Intelligence	http://new-intelligence.com	55.610948	-4.498642	1
Newtonian Systems Ltd	https://www.newtonian.ltd	51.574761	-0.779475	1
NextMove Software	https://www.nextmovesoftware.com/	52.23424	0.139795	1
nexume	http://nexume.net	51.716957	-1.967427	1
Nexus FrontierTech	http://nexusfrontier.tech	51.517943	-0.090177	1
ngenius.ai	http://ngenius.ai	52.622369	1.241391	1
NHS Innovation Accelerator	http://www.nhsaccelerator.com	51.522693	-0.136009	1		1.0
Nightingale HQ	http://nightingalehq.ai	51.602387	-3.341622	1
Niico	https://www.niico.ai/	51.520229	-0.079256	1
Nila Technology	http://www.gonila.io	51.523617	-0.085197	1
Nimbletank	https://www.nimbletank.com/	51.521036	-0.081185	1
Nimbous	http://nimbous.co	51.525615	-0.083628	1
Nirvaris	http://nirvaris.com	51.52115	-0.075657	1
Nitechain	http://nitechain.io	51.516947	-0.104733	1
Noble Maxwell	http://noblemaxwell.com	51.485645	-0.12379	1
Nodal	https://www.nodal.com/	51.493534	-0.148205	1
NodeNs Medical	https://www.nodens.eu/	51.517427	-0.124362	1
Nomad Energy Solutions Ltd	http://www.nomadenergy.co.uk	55.949806	-3.214684	1
Nomoi	https://www.nomoi.org.uk	51.503571	-0.564895	1
noopd	http://www.noopd.com	50.832592	-0.13736	1
Noos Energy	https://noos.energy	51.533889	-0.064522	1
North East Space Incubation Programme	http://www.northeasttechnologypark.com	54.67032	-1.451383	1		1.0
Not Just You	http://www.njyapp.com/	51.516892	-0.188303	1
Nova	http://www.wearenova.co.uk	53.425686	-2.994401	1		1.0
Nova A.I.	https://wearenova.ai/	51.513704	-0.132957	1
Nova Futur	http://novafutur.com	51.493102	-0.146519	1
Novadata Solutions	http://novadatasolutions.co.uk	51.66921	-1.287703	1
Novai	http://www.novai.co.uk	51.455049	-0.967134	1
Novoic	https://www.novoic.com	51.525207	-0.167722	1
Nowme	https://nowme.co.uk	51.449707	0.048838	1
NowSpeak Technologies	http://nowspeak.com/	51.206286	-0.820932	1
nPlan	http://www.nplan.io	51.515372	-0.072487	1
nquiringminds	https://nquiringminds.com/	50.961302	-1.422421	1
nr2	http://nr2.io	51.482119	-0.113652	1
nToklo	http://ntoklo.com	51.515731	-0.125307	1
Nudge	http://www.nudgeband.co.uk	51.527304	-0.088894	1
NumberEight	https://www.numbereight.ai	51.526625	-0.084321	1
Numen Capital	https://www.numencapital.com/	51.498489	-0.166504	1
Nurturey	https://www.nurturey.com/	51.386854	0.084634	1
Nurz	http://www.nurz.io	51.514897	-0.123615	1
NVIDIA Inception for Startups	https://www.nvidia.com/en-gb/startups/	52.229833	0.150244	1		1.0
NYOUM	http://www.nyoum.com	51.506111	-0.13612	1
Oaktree & Lion	http://www.oaktreeandlion.com	51.546166	-0.178462	1
OBRIZUM	http://obrizum.com	52.214018	0.125064	1
OBRIZUM Group Ltd.	https://obrizumgroup.com	52.208045	0.136414	1
Observe Technologies	http://observe.tech/	51.460375	-0.301894	1
Obsidian AI Advisors	http://obsidianaiadvisors.com	51.302049	-0.066301	1
Occam	http://www.occam.global	51.797417	-0.071459	1
Ocellus	http://www.ocellus.com	51.502309	-0.15443	1
Octofox	https://www.octofox.ai	51.514897	-0.123615	1
Octopus Energy	https://octopus.energy/	51.512279	-0.137195	1
Oculo	http://oculo.ai	51.521071	-0.108972	1
Odin Vision	https://odin-vision.com	51.519562	-0.139391	1
Odyssiant	https://www.odyssiant.com/buyers-on-journeys-our-story/	51.175288	-0.895694	1
Ognio	http://www.weareognio.com	51.514772	-0.072095	1
Okra's	https://www.okra.ai/	52.235272	0.153729	1
Oleeo	http://oleeo.com	51.433782	-0.196398	1
Olvin	http://www.olvin.com	51.519943	-0.122529	1
Omega Intelligence Systems	https://www.omegaintellisys.com/	51.504083	-0.018366	1
Omenics	http://omenics.com	51.526019	-0.208166	1
Ometria	http://www.ometria.com	51.524074	-0.076689	1
Omnia Biosystems	http://www.omnia.bio	51.514897	-0.123615	1
Omnifia	https://omnifia.com	51.511786	-0.248707	1
OmPrompt	https://omprompt.com/	51.624233	-1.295873	1
On Demand Payment Technologies	https://od-pt.com	51.521071	-0.108972	1
Onaria Technologies	http://onariatech.com	52.023447	0.238779	1
OnBoard	https://www.onboardsmart.com	51.57732	-0.324377	1
OncoCDx | Artificial Intelligence for Personalized Medicine	http://www.oncocdx.org	52.173912	0.138099	1
OneTrust	https://www.onetrust.com/	51.426397	-0.155793	1
Onfido	https://onfido.com	51.519645	-0.084083	1
onVision Intelligent Document Processing	https://www.onvision.ai	51.585187	-0.082869	1
Open Energi	http://www.openenergi.com	51.518795	-0.165933	1
Open Medical	http://www.openmedical.co.uk	51.51166	-0.312578	1
