Name	Link	Latitude	Longitude	Company	Funder	Incubator / accelerator	University / RTO	Sector 1	Sector 2	Sector 3	Sector 4	Sector 5	Sector 6	Sector 7	Sector 8	Sector 9	Sector 10	Sector 11
[AI] Infiniti	https://aiinfiniti.com/	51.374948	-0.089973	1.0
Oxford Cancer Analytics	https://www.oxcan.org	51.753231	-1.266054	1.0
Oxford Dynamics	http://www.oxdynamics.com	51.577844	-1.309304	1.0
Oxford Machine Intelligence	https://www.oxmi.com	51.754026	-1.293976	1.0
Oxford Oxytocin	https://www.oxfordoxytocin.com/	51.514897	-0.123615	1.0
Oxford Semantic Technologies	http://oxfordsemantic.tech	51.748897	-1.259581	1.0
Oxford Vision & Sensor Technology	https://oxfordvst.com/	52.386998	-1.558103	1.0
Oxia Palus	https://www.oxia-palus.com/	51.520592	-0.12221	1.0
Oxehealth	https://www.oxehealth.com/	51.716502	-1.218059	1.0
Oxquant	http://oxquant.com	51.77852	-1.266862	1.0
Oxtractor	https://www.oxtractor.com	51.752802	-1.291297	1.0
Oxygen Digital Recruitment	http://oxygendigital.ai	51.73623	0.469213	1.0
Oxygen Technologies	https://covidray.online/	51.521681	-0.147161	1.0
Ozoneering	http://www.ozoneering.co.uk	51.207557	-2.65322	1.0
P4 Precision Medicine Accelerator	http://www.p4precisionmedicine.co.uk/	51.521843	-0.084997	1.0		1.0
Pace To Race App	https://www.pacetorace.com	52.625532	-1.303928	1.0
Pact Global	http://pactglobal.co.uk	51.728881	0.456955	1.0
OxSight	http://smartspecs.co	52.409313	-1.713045	1.0
Paideia	http://www.paideialondon.com	53.017295	-1.312444	1.0
Oxcitas	https://www.oxcitas.com/	52.232284	0.151169	1.0
Oxademy Technologies	http://ox.education/	51.752828	-1.258531	1.0
Orkestro	http://orkestro.com	51.531645	-0.068597	1.0
Orox.ai	https://orox.ai	51.409961	-0.216345	1.0
Ortelio	http://ortelio.co.uk/	52.402958	-1.504161	1.0
Ortelio Ltd	http://noos.cloud	52.402958	-1.504161	1.0
Ortom	https://www.ortom.ai/	53.447741	-2.278253	1.0
Orxa Grid	http://www.orxagrid.com	51.521036	-0.081185	1.0
OSCE.AI	http://www.osce.ai/	51.480809	-0.406556	1.0
Oxbotica	https://www.oxbotica.com/	51.733669	-1.20502	1.0
Oseven Telematics	http://www.oseven.io/	51.603197	-0.192104	1.0
outboundly.io	https://www.outboundly.io/	51.481	-0.389605	1.0
Outlier Ventures	https://www.outlierventures.io/	51.522751	-0.103659	1.0	1.0	1.0
Outra	https://outra.co.uk	51.476339	-0.182695	1.0
Overground Analytics	http://www.overgroundanalytics.com	51.51601	-0.070426	1.0
Overtone	http://www.overtone.ai	51.521071	-0.108972	1.0
Ovida	https://ovida.org	52.949777	-1.142129	1.0
Ox Mountain	http://www.oxmt.net/	51.748897	-1.259581	1.0
Osinto	http://www.osinto.com	51.527304	-0.088894	1.0
Oregon Technology	http://www.oregontech.co.uk	51.898952	-2.156304	1.0
Palm AI	https://www.palmai.io	51.514897	-0.123615	1.0
Pangaea Data	http://www.pangaeadata.ai	51.503146	-0.113259	1.0
PentaBind	https://www.pentabind.com/	51.465397	-0.132439	1.0
PentoPix	http://www.pentopix.com/	51.530785	-0.093391	1.0
People Matter	http://peoplematter.tech	50.721097	-1.877644	1.0
PEP Health	https://www.pephealth.ai/	51.514455	-0.111772	1.0
Peptone - The Protein Intelligence Company	https://peptone.io	51.501645	-0.189647	1.0
Per ARDUA Associates	http://per-ardua.com	53.252555	-2.111396	1.0
Perceptbox	https://www.perceptbox.io/	51.622648	-0.105319	1.0
Pear Bio	https://www.pearbio.com/	51.274656	1.088672	1.0
Perceptron Global	https://www.perceptronglobal.com	51.587372	-0.00992	1.0
PerchPeek	https://www.perchpeek.com/	51.520277	-0.078752	1.0
Perfect Virtual	http://www.perfectvirtual.co.uk	51.60213	0.262976	1.0
Permutable AI	http://www.permutable.ai	51.429423	-0.323722	1.0
Perseptive	https://perseptive.co.uk/	51.513536	-0.150172	1.0
Personalyze	http://www.personalyze.ai	53.482025	-2.234278	1.0
personar.ai	http://www.personar.ai	51.514897	-0.123615	1.0
Personify XP	http://www.personifyxp.com	51.523871	-0.173841	1.0
Perceptual Robotics	http://perceptual-robotics.com	51.499618	-2.551821	1.0
Panakeia Technologies	https://panakeia.ai/	51.512285	-0.117742	1.0
Peak	https://peak.ai	53.478997	-2.238616	1.0
Pays International	http://www.pays-international.com	51.96017	0.344459	1.0
Panintelligence	https://www.panintelligence.com/	53.864238	-1.673439	1.0
Pansensic	https://www.pansensic.com/contact/	50.823871	-4.550105	1.0
Paparico	http://paparico.co.uk	50.872949	-0.000893	1.0
Papercup	http://papercup.com	51.527447	-0.088297	1.0
Paragon Intelligence	http://paragonintelligence.co.uk	53.380833	-2.599358	1.0
Parallel AI	http://www.parallelai.com	51.308587	-0.56306	1.0
Partnerize	https://partnerize.com	54.965466	-1.616477	1.0
PCL Health	https://pcl-health.com/	51.498694	-0.116415	1.0
Pasabi	http://www.pasabi.com	55.946723	-3.202866	1.0
PathLAKE	http://www.pathlake.org	52.421211	-1.438403	1.0
PathWorx	http://www.pathworx.co.uk	53.843424	-2.227528	1.0
Patient Connect	http://www.patientconnect.eu/	51.239373	-0.567415	1.0
PatientMetRxÂ®	http://www.patientmetrx.com	55.86343	-4.264235	1.0
Patsnap	https://www.patsnap.com/login/	51.493859	-0.273951	1.0
PATTERNS AI LIMITED	https://www.patternsai.com	57.175427	-2.157737	1.0
PaxTrans	http://paxtrans.io	51.759163	-0.560197	1.0
Pathfinder	http://www.talentedcloud.com	53.478978	-2.252237	1.0
PetaCrunch	http://petacrunch.com	51.513658	-0.115996	1.0
OrbitX	http://www.orbitx.co.uk/	51.502277	-0.105601	1.0
Optix Software	http://optix.co.uk	53.975767	-1.126857	1.0
nPlan	http://www.nplan.io	51.515372	-0.072487	1.0
nquiringminds	https://nquiringminds.com/	50.961302	-1.422421	1.0
nr2	http://nr2.io	51.482119	-0.113652	1.0
nToklo	http://ntoklo.com	51.515731	-0.125307	1.0
Nudge	http://www.nudgeband.co.uk	51.527304	-0.088894	1.0
NumberEight	https://www.numbereight.ai	51.526625	-0.084321	1.0
Numen Capital	https://www.numencapital.com/	51.498489	-0.166504	1.0
NowSpeak Technologies	http://nowspeak.com/	51.206286	-0.820932	1.0
Nurturey	https://www.nurturey.com/	51.386854	0.084634	1.0
NVIDIA Inception for Startups	https://www.nvidia.com/en-gb/startups/	52.229833	0.150244	1.0		1.0
NYOUM	http://www.nyoum.com	51.506111	-0.13612	1.0
Oaktree & Lion	http://www.oaktreeandlion.com	51.546166	-0.178462	1.0
OBRIZUM	http://obrizum.com	52.214018	0.125064	1.0
OBRIZUM Group Ltd.	https://obrizumgroup.com	52.208045	0.136414	1.0
Observe Technologies	http://observe.tech/	51.460375	-0.301894	1.0
Obsidian AI Advisors	http://obsidianaiadvisors.com	51.302049	-0.066301	1.0
Nurz	http://www.nurz.io	51.514897	-0.123615	1.0
Occam	http://www.occam.global	51.797417	-0.071459	1.0
Nowme	https://nowme.co.uk	51.449707	0.048838	1.0
Novai	http://www.novai.co.uk	51.455049	-0.967134	1.0
Nimbous	http://nimbous.co	51.525615	-0.083628	1.0
Nirvaris	http://nirvaris.com	51.52115	-0.075657	1.0
Nitechain	http://nitechain.io	51.516947	-0.104733	1.0
Noble Maxwell	http://noblemaxwell.com	51.485645	-0.12379	1.0
Nodal	https://www.nodal.com/	51.493534	-0.148205	1.0
NodeNs Medical	https://www.nodens.eu/	51.517427	-0.124362	1.0
Nomad Energy Solutions Ltd	http://www.nomadenergy.co.uk	55.949806	-3.214684	1.0
Novoic	https://www.novoic.com	51.525207	-0.167722	1.0
Nomoi	https://www.nomoi.org.uk	51.503571	-0.564895	1.0
Noos Energy	https://noos.energy	51.533889	-0.064522	1.0
North East Space Incubation Programme	http://www.northeasttechnologypark.com	54.67032	-1.451383	1.0		1.0
Not Just You	http://www.njyapp.com/	51.516892	-0.188303	1.0
Nova	http://www.wearenova.co.uk	53.425686	-2.994401	1.0		1.0
Nova A.I.	https://wearenova.ai/	51.513704	-0.132957	1.0
Nova Futur	http://novafutur.com	51.493102	-0.146519	1.0
Novadata Solutions	http://novadatasolutions.co.uk	51.66921	-1.287703	1.0
noopd	http://www.noopd.com	50.832592	-0.13736	1.0
Orbit Financial Technology	http://www.orbitfin.ai	51.512422	-0.092973	1.0
Ocellus	http://www.ocellus.com	51.502309	-0.15443	1.0
Octopus Energy	https://octopus.energy/	51.512279	-0.137195	1.0
Open Energi	http://www.openenergi.com	51.518795	-0.165933	1.0
Open Medical	http://www.openmedical.co.uk	51.51166	-0.312578	1.0
OpenCapacity	http://opencapacity.co/	51.524419	-0.099539	1.0
OpenDialog	https://www.opendialog.ai	51.526418	-0.078275	1.0
OPEX Group	https://www.opex-group.com	57.144593	-2.121136	1.0
OpRes	http://www.opres.uk	51.517943	-0.090177	1.0
OPTADS LTD	http://www.optads.com	53.547162	-2.007025	1.0
onVision Intelligent Document Processing	https://www.onvision.ai	51.585187	-0.082869	1.0
Optalitix	https://www.optalitix.com/	51.541822	-0.139496	1.0
Optasia Medical	http://www.optasiamedical.com	53.374919	-2.188914	1.0
Optellum	http://www.optellum.com	51.752312	-1.263653	1.0
Opteran Technologies	http://opteran.co.uk	53.381062	-1.481137	1.0
Optic Earth	http://opticearth.co	57.142123	-2.129687	1.0
Optilyx	http://www.optilyx.com	51.494663	-0.276038	1.0
Optimal Labs	http://optimal.ag	51.493393	-0.226335	1.0
Optimise Health Ltd	http://www.optbp.com	53.24911	-0.006993	1.0
Optalysys	http://www.optalysys.com	53.707766	-1.340571	1.0
Octofox	https://www.octofox.ai	51.514897	-0.123615	1.0
Onfido	https://onfido.com	51.519645	-0.084083	1.0
OncoCDx | Artificial Intelligence for Personalized Medicine	http://www.oncocdx.org	52.173912	0.138099	1.0
Oculo	http://oculo.ai	51.521071	-0.108972	1.0
Odin Vision	https://odin-vision.com	51.519562	-0.139391	1.0
Odyssiant	https://www.odyssiant.com/buyers-on-journeys-our-story/	51.175288	-0.895694	1.0
Ognio	http://www.weareognio.com	51.514772	-0.072095	1.0
Okra's	https://www.okra.ai/	52.235272	0.153729	1.0
Oleeo	http://oleeo.com	51.433782	-0.196398	1.0
Olvin	http://www.olvin.com	51.519943	-0.122529	1.0
OneTrust	https://www.onetrust.com/	51.426397	-0.155793	1.0
Omega Intelligence Systems	https://www.omegaintellisys.com/	51.504083	-0.018366	1.0
Ometria	http://www.ometria.com	51.524074	-0.076689	1.0
Omnia Biosystems	http://www.omnia.bio	51.514897	-0.123615	1.0
Omnifia	https://omnifia.com	51.511786	-0.248707	1.0
OmPrompt	https://omprompt.com/	51.624233	-1.295873	1.0
On Demand Payment Technologies	https://od-pt.com	51.521071	-0.108972	1.0
Onaria Technologies	http://onariatech.com	52.023447	0.238779	1.0
OnBoard	https://www.onboardsmart.com	51.57732	-0.324377	1.0
Omenics	http://omenics.com	51.526019	-0.208166	1.0
Nimbletank	https://www.nimbletank.com/	51.521036	-0.081185	1.0
Petiole	http://petiole.co.uk	51.391889	-0.314386	1.0
Petriva	http://petriva.co.uk	53.807958	-1.553329	1.0
Qflow	http://qualisflow.com	51.504656	-0.088617	1.0
QiO Technologies	http://qio.ai	51.295958	-0.752502	1.0
Qlearsite	http://www.qlearsite.com	51.526928	-0.087324	1.0
QSmash App	https://qsmash.com/	51.527304	-0.088894	1.0
QStory	https://qstory.ai/	51.240262	-0.612113	1.0
Qu Analytics	https://www.qu-analytics.co.uk	51.50698	-0.004736	1.0
Qu_Mind	http://qumind.co.uk	51.503874	-0.100376	1.0
QBox	https://qbox.ai/	51.411704	-0.798013	1.0
Quadible	http://www.quadible.co.uk	51.514897	-0.123615	1.0
Qualyval	http://qualyval.com	52.079603	-0.70354	1.0
Quanovo	http://www.quanovo.com	53.498746	-3.04509	1.0
Quant Foundry	http://quantfoundry.com	51.512798	-0.087196	1.0
Quantemplate	https://www.quantemplate.com	51.527734	-0.077412	1.0
Quantexa	http://quantexa.com/	51.503492	-0.11564	1.0
Quantum Motion Technologies	http://www.quantummotion.tech	53.992918	-1.550978	1.0
QuantumBlack	http://www.quantumblack.com	53.747862	-0.34379	1.0
Quadrature	http://www.quadrature.ai	51.513769	-0.082324	1.0
Quantumics.AI	https://www.quantumics.ai/	51.611061	-0.278397	1.0
Qarma Technology	http://www.qarmatechnology.com	51.513324	-0.084738	1.0
Q-Equip	http://qequip.co.uk	51.510535	-0.145066	1.0
PSA Consultants	http://www.psaconsultants.co	51.663806	-0.396744	1.0
Psimonix	http://www.psimonix.com	51.5973	-0.333229	1.0
Psonify	http://psonify.com	51.524565	-0.112042	1.0
PSYKHE	http://psykhefashion.com	52.295107	0.130484	1.0
Publisher Discovery	http://publisherdiscovery.com	51.37956	-2.358168	1.0
Pukket	http://www.pukket.com	51.527033	-0.115631	1.0
PulseAI	http://www.pulseai.io	54.592972	-5.930572	1.0
Qandai	https://qandai.com	51.51641	-0.0888	1.0
PURE4D	http://pure4d.com	55.859653	-4.359002	1.0
Purple Paths	https://purplepaths.com	51.519959	-0.094129	1.0
Purplepeople	http://purplepeople.live/	50.918454	-0.99942	1.0
Pylink	http://pylink.co.uk	51.514455	-0.111772	1.0
Pylon One	https://www.pylonone.com	51.698818	-0.609712	1.0
Pynk	http://www.pynk.io	51.533075	-0.105534	1.0
Q Energy	https://www.qenergy.ai/	53.463013	-2.236013	1.0
Q-Bot	http://q-bot.co	51.446141	-0.193023	1.0
Purlos	http://purlos.com	51.530785	-0.093391	1.0
Proximie	http://www.proximie.com	51.514535	-0.14392	1.0
Quantyr	https://www.quantyr.com	54.973003	-1.624295	1.0
Qubit	http://www.qubit.com/	50.75889	-2.074734	1.0
Rapid Health	https://www.rapidhealth.co.uk	51.518439	-0.088992	1.0
RAU Farm491	http://www.farm491.com	51.709508	-1.994916	1.0		1.0
Ravelin Technology	http://www.ravelin.com/	51.525169	-0.090466	1.0
Raven Science	https://ravenscience.com/	51.527704	-0.102614	1.0
Ravio	https://ravio.io	53.092333	-2.431399	1.0
re:infer	https://reinfer.io	51.526308	-0.077645	1.0
RE5Q	https://www.re5q.com/	51.512352	-0.125403	1.0
Raphos	http://www.raphos.com	51.50484	-0.05509	1.0
Reachal	http://www.reachal.com	51.477027	-3.155338	1.0
Realeyes	http://www.realeyesit.com	51.514303	-0.134882	1.0
Realfin	https://www.realfin.com	51.520925	-0.108088	1.0
RealSam	http://www.realsam.co.uk	51.522259	-0.115165	1.0
REalyse	https://realyse.com/	51.513552	-0.08052	1.0
REAP Technologies Ltd	https://reap.digital/	51.521472	-0.143638	1.0
Recii	https://recii.io/	51.499	-0.098706	1.0
Reckon Digital	https://reckondigital.com	51.515341	-0.104929	1.0
React AI	http://www.reactai.com	51.23763	-0.570829	1.0
Quasar Labs	https://quasarlabs.co	51.516401	-0.073378	1.0
Raiys	http://www.raiys.com	53.388629	-2.597123	1.0
RAIR Health	http://www.rair.ai	51.498694	-0.116415	1.0
Qubit Health	http://www.qubithealth.com	51.390642	-0.274417	1.0
Qubitl - Quantum Technologies	http://www.qubitl.com	51.530785	-0.093391	1.0
Questar Auto UK	https://questarauto.com/	51.642567	-0.314014	1.0
Quickdialog	http://www.quickdialog.com	51.530766	-0.201059	1.0
Qumodo	https://www.qumo.do	51.503875	-0.100351	1.0
Quorem	http://www.quorem.aero	51.500942	-2.477598	1.0
Quorso	http://www.quorso.com/	51.511263	-0.12695	1.0
Rais	https://rais.io	51.418946	-0.191262	1.0
QVote	https://qvote.co.uk/	51.40118	-0.568054	1.0
Racing Oracle	http://www.racingoracle.com	51.514897	-0.123615	1.0
Radarai	http://radarai.com	51.518472	-0.176367	1.0
Radius Analytics	https://radiusanalytics.co.uk	51.54268	0.00963	1.0
Radius Tech	https://www.314radius.com	51.527304	-0.088894	1.0
Rafiqi	http://rafiqi.net	51.514897	-0.123615	1.0
RainBird Technologies	https://rainbird.ai/	52.633943	1.293488	1.0
Raion	http://raion.io	51.611408	-0.280579	1.0
R Medical Solutions	https://rmedicals.co.uk	52.811918	-1.630808	1.0
PetriBox	http://www.petribox.com/	51.520783	-0.22871	1.0		1.0
Prospex	https://www.prospex.ai/	51.514177	-0.093577	1.0
proSapient	http://prosapient.com	51.52127	-0.112899	1.0
Pixsellar	http://www.pixsellar.com	51.521886	-0.716041	1.0
PlaceMake.io	http://www.placemake.io/	51.489695	-0.144929	1.0
Planning-inc	http://www.planning-inc.co.uk	51.503987	-0.096841	1.0
Plastometrex	https://www.plastometrex.com	52.194982	0.134033	1.0
Platform360	http://www.platform360.co	51.522489	-0.078241	1.0
Plexal	https://www.plexal.com	51.547521	-0.022262	1.0		1.0
Plumerai	http://plumerai.com	51.515372	-0.072487	1.0
Pixpro, Ltd	http://www.pix-pro.com	52.575972	0.992533	1.0
Plural AI	http://www.plural.ai/	51.528568	-0.078216	1.0
Plyable	http://plyable.com	51.738272	-1.195014	1.0
Pointr Labs	https://www.pointr.tech/	51.512065	-0.136771	1.0
PoliMonitor	http://www.polimonitor.com	51.523617	-0.085197	1.0
Polly Speech	https://pollyspeech.com	51.482762	-3.170935	1.0
PolyAI	https://poly.ai	51.522201	-0.109736	1.0
Polychord	https://polychord.io/	51.453388	-0.100832	1.0
Polygon Analytics	https://www.polygonanalytics.com/	55.947528	-3.210625	1.0
Pluto Data Analytics	https://plutodata.co.uk	50.841831	-0.153924	1.0
POLYN Technology	https://polyn.ai/	51.516507	-0.140009	1.0
Pivigo	http://www.pivigo.com/	51.512122	-0.103711	1.0
Pirical	http://www.pirical.com	51.523098	-0.081471	1.0
Pharmatics	https://pharmaticsltd.com/	55.919813	-3.129131	1.0
Phebi.AI	https://www.phebi.ai/	51.527304	-0.088894	1.0
PhishAR	http://www.phishar.com/	51.731892	-1.204714	1.0
Phlexglobal	http://www.phlexglobal.com	51.665712	-0.613821	1.0
Phlo Systems	https://www.phlo.io/	51.504937	-0.019523	1.0
Photier	http://photier.com	51.498446	-0.208023	1.0
PhotoCert	https://photocert.co.uk/	51.51338	-0.227849	1.0
Pitch Black Pikka	http://www.pitchblackpikka.com	51.544605	-0.623464	1.0
Photolemur	http://photolemur.com	51.518053	-0.133763	1.0
Phrasee	https://phrasee.co/	51.52194	-0.101357	1.0
Phrasys	https://phrasys.co.uk/	52.41696	-1.933336	1.0
Phuzion Media	https://www.phuzion.media/	51.427285	0.103346	1.0
pi-health	https://www.pi-health.co.uk/	53.524591	-2.422354	1.0
PicoJar	http://picojar.com	55.929944	-3.205051	1.0
Pimloc	http://www.pimloc.com/	51.510925	-0.117708	1.0
PinPoint Data Science	http://pinpointdatascience.com	53.805411	-1.550354	1.0
PhotonicVision	http://photonic.vision	51.273053	0.190679	1.0
Prosourced	https://www.prosourced.com/	51.521071	-0.108972	1.0
Polysurance	https://www.polysurance.com/	51.515028	-0.078368	1.0
PoolScout	http://poolscout.co	51.550642	-0.165788	1.0
Principia Labs Ltd	http://www.principialabs.co.uk	51.534759	-0.116826	1.0
Pritchatts Consulting	http://pritchatts.com	52.538663	-1.830831	1.0
PROBOTEK A.I.	http://probotek.co.uk/	51.626916	-0.174853	1.0
Procure Ai	https://www.procure.ai	51.491098	-0.181691	1.0
PRODA	http://www.proda.ai	51.505836	-0.10492	1.0
Prodonnees	http://prodonnees.co.uk	50.900618	-1.395209	1.0
Prodsight	https://www.prodsight.com/?utm_source=linkedin&utm_medium=social&utm_campaign=linkedin_page	51.521843	-0.084997	1.0
Principia Invest	http://principiainvest.com	51.482066	-0.135564	1.0
ProFinda	http://www.profinda.com	51.503026	-0.085199	1.0
Project Data Analytics Community	https://projectdataanalytics.uk/	51.086023	-1.666848	1.0
Projecting Success	https://projectingsuccess.co.uk	51.086023	-1.666848	1.0
Propcision	http://propcision.com	51.514954	-0.109946	1.0
Propel@YH	http://www.propel-yh.com	53.654958	-1.519769	1.0		1.0
Propelmee	http://www.propelmee.com	51.580222	-0.339287	1.0
Property Price Hub	http://www.propertypricehub.co.uk	55.952289	-3.1778	1.0
ProQuo AI	http://www.proquoai.com	51.495618	-0.224269	1.0
Programmai	https://programmai.com	51.524527	-0.077478	1.0
Pondus	https://www.pondus.xyz/	52.651079	-0.4846	1.0
PRIME AI	http://primeai.co.uk	51.344641	1.090275	1.0
Priceless AI	https://www.pricelessai.com/	51.525615	-0.083628	1.0
Popsa	https://popsa.com	51.512495	-0.138915	1.0
PORGiESOFT	https://www.porgiesoft.com	52.234821	0.129527	1.0
PORTABL.co	http://portabl.co	51.530785	-0.093391	1.0
PowerMarket	http://powermarket.ai/	51.752802	-1.291297	1.0
PowerX Technology	http://www.powerx.ai	51.515925	-0.089397	1.0
PRECISE PREDICTION UK LTD	http://www.preciseprediction.co.uk	51.519348	-0.089631	1.0
Precise.tv	http://www.precise.tv	51.517653	-0.142654	1.0
Priestland Consulting	http://priestland.com	51.172927	-0.712867	1.0
Predictiva	https://www.predictiva.co.uk/	52.629312	-1.137676	1.0
Predictive Edge	http://www.predictive-edge.io	51.57121	-0.119346	1.0
Predictron Labs	http://predictronlabs.com/	51.537534	-0.091592	1.0
Predictx	https://www.predictx.com/	51.495814	-0.145746	1.0
Predina Tech	http://www.predina.com	51.515309	-0.073585	1.0
Prevalent AI	http://prevalent.ai	51.469897	-0.221083	1.0
Previse	http://www.previ.se/	51.527447	-0.088297	1.0
PreWarp	https://www.prewarp.co/	50.661501	-3.296739	1.0
Predictive Black	http://predictiveblack.com	51.652883	-0.688414	1.0
Recognys	http://recognys.com	51.633345	-0.771127	1.0
Nila Technology	http://www.gonila.io	51.523617	-0.085197	1.0
Nightingale HQ	http://nightingalehq.ai	51.602387	-3.341622	1.0
Lilheads	http://lilheads.com	51.520991	-0.100659	1.0
Limbic	https://limbic.ai/	51.527304	-0.088894	1.0
Limejump	http://www.limejump.com/	51.480402	-0.110227	1.0
Limitless Insights	https://limitlessinsights.com	54.613625	-5.898562	1.0
Lineal	http://www.linealservices.com	51.520037	-0.087898	1.0
Linguamatics	http://www.linguamatics.com	52.235791	0.137323	1.0
Lingvist	https://lingvist.com	51.522586	-0.08537	1.0
Lightfi - True Retrofit Solution	http://www.lightfi.io	51.524854	-0.092543	1.0
Liopa	http://www.liopa.ai	54.613625	-5.898562	1.0
Litha Group	http://www.litha.org	52.626216	-1.120097	1.0
Little Nudge	http://littlenudge.io	51.5854	-0.114863	1.0
Lloyd's List Intelligence	http://lloydslistintelligence.com	51.496693	-0.13649	1.0
Lobster	http://lobster.media	51.547521	-0.022262	1.0
Locomizer	http://locomizer.com	51.517327	-0.142383	1.0
LodeStar Ecosystems Limited	http://www.lodestar-ecosystems.com	51.885679	0.894248	1.0
Logic Programming Associates	http://www.lpa.co.uk	51.509117	-0.194937	1.0
Liqural	http://www.liqural.com	51.513597	-0.035534	1.0
Logically	https://www.logically.ai	51.514484	-0.080463	1.0
lifesdna - wellness wellbeing healthcare data blockchain, AI powered search engine marketplace	https://www.lifesdna.com	51.519458	-0.153305	1.0
LIBRA MLI LTD	https://www.libramli.ai/	55.894439	-3.217638	1.0
learnAh	http://learnah.org	51.522658	-0.032117	1.0
Leftbrain Technology	http://leftbraintechnology.com	51.506554	-0.135054	1.0
Legal Utopia	http://legalutopia.co.uk	51.516961	-0.120561	1.0
Legal Workflow	http://legalworkflow.com	50.821461	-0.805544	1.0
Legli	http://www.legli.com	51.459493	-2.609128	1.0
LEM Verify	http://lemverify.com	51.501685	-0.192196	1.0
lens.ai	https://www.lens.ai/	51.794484	-0.080125	1.0
Lifebit	https://lifebit.ai/	51.521691	-0.081633	1.0
Lenus Health	https://lenushealth.com/	55.974835	-3.16677	1.0
Level39	http://www.level39.co/news/level39/	51.504937	-0.019523	1.0		1.0
Lexical Labs	http://www.lexicallabs.com/	51.523891	-0.083802	1.0
Lexicon	http://www.lexiconuk.com	51.527304	-0.088894	1.0
Lexplore Analytics UK	http://www.lexplore-analytics.co.uk	53.399166	-2.153407	1.0
LFR Investment Analytics	https://www.investmentanalytics.co.uk	51.514893	-0.086773	1.0
LGN	http://lgn.ai	51.520592	-0.12221	1.0
Libra MLI	http://libramli.co.uk	55.978744	-3.180303	1.0
Let's Chat Ethics	http://www.letschatethics.co.uk	51.948803	0.022091	1.0
Law Notion	https://lawnotion.co.uk/	51.52208	-0.086314	1.0
Lokulus	http://lokulus.com	53.275341	-2.225528	1.0
Loomi.ai	http://www.loomi.ai	51.3807	-0.007689	1.0
macusoft	http://macusoft.com	51.498694	-0.116415	1.0
MADEIND8R	https://madeind8r.com/	51.527304	-0.088894	1.0
MadLab Arts & Tech Accelerator	https://madlab.org.uk/	53.484322	-2.236581	1.0		1.0
Mafic	http://mafic.ltd	51.240262	-0.612113	1.0
Magna Technologies Ltd	https://www.magna-technology.com	51.732993	-1.20884	1.0
Maiple	http://maiple.com	51.362333	-1.396145	1.0
Maji	http://www.maji.io	51.513832	-0.102112	1.0
Macsim Associates	http://macsimassociates.co.uk	51.516119	-0.188895	1.0
Makee Design	http://www.visionexperts.co.uk	51.214063	-0.74813	1.0
Manas AI	https://manas.ai/	51.480802	-0.202724	1.0
Manchester Imaging	http://manchester-imaging.com/	53.487362	-2.227212	1.0
Manifold Research	http://manifoldresearch.com	52.235272	0.153729	1.0
Mantle Labs	http://www.mantle-labs.com/	50.917788	-1.401161	1.0
Manufactory	https://manufactory.ai	51.88645	-2.080562	1.0
MAP | Media Audit Platform	http://the-map.io	51.508283	-0.19742	1.0
MapMyMind	https://mapmymind.co.uk/	52.50184	-1.928347	1.0
Man Group	http://www.man.com/gpm-aalto	51.507724	-0.145392	1.0
Longlive	http://www.longliveapp.com	51.498694	-0.116415	1.0
Macrina Investment Management	http://macrina.co.uk	51.509878	-0.144584	1.0
Machine Medicine	http://machinemedicine.com/	51.500087	-0.08431	1.0
LoopMe	https://loopme.com	51.520615	-0.106844	1.0
Loopserv LTD.	https://www.loopserv.com/	54.974639	-1.601207	1.0
Love the Sales	https://www.lovethesales.com	51.523557	-0.081915	1.0
LOYAL AI	http://loyal.ai	51.522662	-0.107768	1.0
Loyalty Boomerang	http://loyaltyboomerang.com	51.534239	-0.121995	1.0
LQA	https://www.leadingquality.com	51.388081	0.076365	1.0
Lucida Medical Ltd	https://lucidamedical.com	52.173912	0.138099	1.0
Machines With Vision	http://www.machineswithvision.com	55.947094	-3.202621	1.0
Luckytrip	https://luckytrip.co.uk/	51.554761	-0.067115	1.0
Lumiere Property	https://www.lumiereproperty.co.uk/	51.127927	0.262026	1.0
Lumilinks	http://lumilinks.com	51.520317	-0.105674	1.0
Lupovis	http://www.lupovis.io	55.863145	-4.258689	1.0
Luxury Promise	http://www.luxurypromise.com	51.501529	-0.163082	1.0
Maaind	http://www.maaind.com	51.532863	-0.110058	1.0
Machine Intelligence Garage	https://migarage.digicatapult.org.uk/about-mi-garage/	51.528539	-0.127131	1.0		1.0
MACHINE INTELLIGENCE LTD	http://www.machineintelligence.co.uk	51.123699	-3.455525	1.0
Lumenai	http://www.lumenai.tech	51.037052	-2.273426	1.0
MARKETAI	http://www.marketai.co.uk	53.004536	-1.191729	1.0
Latsen Technology LTD	https://latsen.com/	51.530785	-0.093391	1.0
LandTech	http://landenhance.io	51.516945	-0.077927	1.0
Kanbina	https://www.kanbina.ai/	51.516945	-0.077927	1.0
Kando	https://kando.tech/	51.528539	-0.127131	1.0
Kapital	https://kapital.global	51.393112	-0.628762	1.0
Karakuri	http://www.karakuri.com	51.489674	-0.221236	1.0
Kare	https://karehq.com/	51.518925	-0.111382	1.0
Karno	https://karno.is	51.452873	-2.590458	1.0
Katana Labs	https://www.katanalabs.io	51.515797	-0.089145	1.0
Kamua	http://kamua.com	51.410878	-0.185354	1.0
KATLAS Technology	http://katlastechnology.com/	51.508891	-0.144711	1.0
Kemuri	http://kemuri.co.uk	51.313241	-0.611242	1.0
Kensai	https://kensai.tech	51.529853	-0.129485	1.0
KeyPoint Technologies	http://www.keypoint-tech.com/	55.859653	-4.359002	1.0
Kheiron	https://www.kheironmed.com/	51.524561	-0.092757	1.0
Kieli Localization	https://kieli.co.uk	51.494372	-0.157531	1.0
Kingfisher Labs	http://www.kingfisherlabs.co.uk	52.202977	0.138909	1.0
Kingpin Communications	http://kingpincomms.com/	51.509781	-0.131662	1.0
Keen AI	http://www.keen-ai.com/	52.44592	-1.889287	1.0
KINTARA	https://kintara.io	51.514897	-0.123615	1.0
Kami	https://kami.ai/	51.504937	-0.019523	1.0
Kaizen Languages	https://www.kaizenlanguages.com/	51.527304	-0.088894	1.0
IXICO	http://www.ixico.com	51.519788	-0.098967	1.0
Javelyn Technology	http://www.javelyn.io	51.514772	-0.072095	1.0		1.0
JCW Group	http://www.jcwgroup.com	51.516696	-0.083181	1.0		1.0
JECT.AI	https://ject.ai/	51.527704	-0.102614	1.0
Jem POS	https://jempos.co.uk/	51.519829	-0.631648	1.0
JobRocket	http://jobrocket.co.uk	51.514897	-0.123615	1.0
Jotup	http://jotup.co	51.516947	-0.104733	1.0
Kaktus AI	http://kaktus.ai/	51.530785	-0.093391	1.0
Jumping Rivers	https://www.jumpingrivers.com	54.973003	-1.624295	1.0
Juro	https://www.juro.com	51.523177	-0.104434	1.0
Just AI	https://just-ai.com/en/	51.527304	-0.088894	1.0
JUUBIX	http://juubix.co.uk	51.550658	-0.085187	1.0
Kabod Analytics	https://kabodanalytics.com/	53.61119	-2.295031	1.0
KageNova	https://www.kagenova.com/	51.240161	-0.581524	1.0
KAI Conversations Limited	http://www.kaiconversations.com	51.544038	-0.83276	1.0
Kainotomo Solutions	http://kainotomo.co.uk	51.498499	-0.112817	1.0
Juno Bio	https://juno.bio	51.494152	-0.062881	1.0
LatentBridge	http://latentbridge.com	51.523535	-0.142718	1.0
Kiroku	http://www.trykiroku.com	52.667388	1.275116	1.0
KisanHub	https://www.kisanhub.com/	52.234821	0.129527	1.0
KQ Labs	http://www.crick.ac.uk/kq-labs	51.531854	-0.128033	1.0		1.0
KQ Liverpool Accelerator	http://www.kqliverpool.co.uk/spaces/accelerator/	53.409654	-2.96755	1.0		1.0
KrakenFlex	https://www.krakenflex.com/	53.483356	-2.233848	1.0
Kreo Software	http://www.kreo.net	51.514897	-0.123615	1.0
Kristalic	http://www.kristalic.com	52.198361	0.120673	1.0
Kuano	https://www.kuano.ai/	52.153615	0.091763	1.0
Kubesee Ltd	https://www.kubesee.com/	51.590093	-1.440189	1.0
Kortical	https://kortical.com	51.502719	-0.110038	1.0
Kvasir Technologies	http://www.kvasir.ai	51.513336	-0.091105	1.0
KYC Hub	https://www.kychub.com/	51.559258	-0.196434	1.0
Kythera	http://kythera.ai	55.946941	-3.201752	1.0
L Marks	https://lmarks.com/	53.477442	-2.243173	1.0	1.0	1.0
L3C Cloud	http://www.l3c.cloud	51.514455	-0.111772	1.0
LabGenius	http://www.labgeni.us/	51.494152	-0.062881	1.0
Labrika SEO toolset	https://labrika.com	51.525615	-0.083628	1.0
Laightning	https://laightning.com/	51.527304	-0.088894	1.0
Kwiziq	https://www.kwiziq.com/	52.292401	-1.532554	1.0
Kirontech	http://www.kirontech.com	52.207792	0.135203	1.0
Kooling	http://www.kooling.io	51.512967	-0.13525	1.0
Koobli	http://koobli.co	51.504937	-0.019523	1.0
KITE EDGE LTD	http://www.kiteedge.co.uk/	51.514925	-0.075501	1.0
KIVALUE	http://ki-value.com	51.501685	-0.192196	1.0
Klarity.io	https://www.getklarity.io	51.518879	-0.133095	1.0
Kleecks	http://www.kleecks.com	51.519286	-0.130945	1.0
kleene.ai	http://www.kleene.ai	51.516949	-0.083805	1.0
Klydo	https://klydo.ai/	51.504642	-0.08899	1.0
KnowAll	http://www.knowall.ai	52.233766	0.146114	1.0
Koodaa Ltd	http://koodaa.com	51.514897	-0.123615	1.0
Knowledgator	http://knowledgator.com	51.574609	-0.428063	1.0
KnowNow Information Ltd	http://www.kn-i.com	50.793584	-1.095646	1.0
Knowsis	http://www.knowsis.com	51.498489	-0.166504	1.0
Koble	https://www.koble.ai	51.524388	-0.082296	1.0
Koho.ai	http://www.koho.ai	51.592331	-0.203031	1.0
Kokoon Technology	http://www.kokoon.io	51.494152	-0.062881	1.0
Kolleno	https://www.kolleno.com	51.516947	-0.104733	1.0
Kompli-Global	https://www.kompli-global.com	51.520991	-0.100659	1.0
Knowlistics Limited	http://knowlistics.com	51.530785	-0.093391	1.0
Niico	https://www.niico.ai/	51.520229	-0.079256	1.0
MASS Analytics	http://www.mass-analytics.com/	51.446404	-0.382879	1.0
MatchingMind	https://www.matchingmind.com/	51.501006	-0.041407	1.0
My Customer Lens	http://www.mycustomerlens.com	55.861589	-4.259254	1.0
My Social Pulse	https://www.mysocialpulse.com	51.617461	-0.435177	1.0
My Voice AI	http://www.myvoice.ai	51.512845	-0.078673	1.0
MyMaskFit	http://www.mymaskfit.co.uk	51.623299	-3.991541	1.0
myned ai	https://www.myned.ai	51.525878	-0.097558	1.0
MyPAM	http://www.mypam.tech	53.477108	-2.243683	1.0
Myrtle Software	http://myrtle.ai	52.202652	0.124536	1.0
MXX	https://www.mxxmusic.com	51.477888	-0.20857	1.0
MyScout	http://www.myscout.club	51.502013	-0.024765	1.0
MyStreet App	https://mystreet.io/	51.59792	-0.349103	1.0
myTamarin	http://www.mytamarin.com	51.611064	-0.178421	1.0
Nalex.ai	https://www.nalex.ai/	51.527304	-0.088894	1.0
Nanna Therapeutics	http://nannatherapeutics.com	52.196536	0.1718	1.0
Nano Interactive	http://www.nanointeractive.com	51.517204	-0.13348	1.0
Napier AI	http://www.napier.ai	51.513336	-0.091105	1.0
NativeLOOK	http://www.nativelook.com	51.550642	-0.165788	1.0
Mystic	https://mystic.ai	51.382828	-2.359875	1.0
Natter.ai	http://natter.ai/	51.872362	-1.481472	1.0
MV37	https://mv37.io	51.516376	-0.081206	1.0
Multiomic Health	http://www.multiomic.health	51.468623	-0.221372	1.0
Moleculomics	http://www.moleculomics.com	51.609627	-3.980616	1.0
Moley Robotics	http://www.moley.com/	51.493529	-0.230084	1.0
Molfar Technologies	http://molfar.tech	51.517491	-0.125148	1.0
Molo	http://www.molofinance.com	51.49321	-0.14358	1.0
Moment One	https://www.momentone.io/	55.947888	-3.208699	1.0
Momentum Data	http://momentumdata.co.uk	51.749541	-0.334431	1.0
Monolith AI	https://www.monolithai.com/	51.501645	-0.189647	1.0
MultiplAI Health	http://www.multiplaihealth.com	51.511833	-0.108217	1.0
Moonsift	http://www.moonsift.com	51.524452	-0.087745	1.0
MortgageLadder	http://www.mortgageladder.com	51.527304	-0.088894	1.0
Mosaic Smart Data	http://mosaicsmartdata.com/	51.517326	-0.085936	1.0
MosaiQ Labs	https://www.mosaiqlabs.com/	51.519615	-0.142762	1.0
MOV.AI	http://mov.ai/	51.544097	-0.139097	1.0
MQube	http://www.mqube.com	51.235407	-0.578747	1.0
MTC Product Manufacturing Incubator	http://www.the-mtc.org/pmi	52.430812	-1.403385	1.0		1.0
Mudano	https://mudano.com	51.514541	-0.08614	1.0
moretho	https://moretho.com	53.513808	-2.235436	1.0
MOLE	http://mole.energy	51.240262	-0.612113	1.0
Naxxar Technology	http://www.naxxar.uk	51.527304	-0.088894	1.0
NCTech	https://www.nctechimaging.com/	55.944739	-3.195343	1.0
neuriver.ai	http://www.neuriver.ai	51.514897	-0.123615	1.0
Neurocreate	http://www.neurocreate.co.uk	51.510925	-0.117708	1.0
Neurolabs	http://www.neurolabs.ai	55.94527	-3.186426	1.0
NeuroNav	http://neuronav.ai	53.395191	-2.980741	1.0
Neurons Lab	http://neurons-lab.com	51.529267	-0.088088	1.0
Neurosight	http://www.neurosight.io	51.279291	1.077983	1.0
Neurotops	http://www.neurotops.com	51.527304	-0.088894	1.0
Neurence	http://neurence.com/	51.507564	-0.126756	1.0
Neustan Ltd	https://neustan.wordpress.com/	51.601762	-0.403213	1.0
New Intelligence	http://new-intelligence.com	55.610948	-4.498642	1.0
Newtonian Systems Ltd	https://www.newtonian.ltd	51.574761	-0.779475	1.0
NextMove Software	https://www.nextmovesoftware.com/	52.23424	0.139795	1.0
nexume	http://nexume.net	51.716957	-1.967427	1.0
Nexus FrontierTech	http://nexusfrontier.tech	51.517943	-0.090177	1.0
ngenius.ai	http://ngenius.ai	52.622369	1.241391	1.0
NHS Innovation Accelerator	http://www.nhsaccelerator.com	51.522693	-0.136009	1.0		1.0
New Future Foundation	http://newfuture.foundation	50.710484	-3.455901	1.0		1.0
Nci Labs	https://ncilabs.co.uk	51.581946	-0.237476	1.0
NeuralTrading.Group	https://www.neuraltrading.group	51.530785	-0.093391	1.0
NeuralRays AI	https://neuralrays.ai/	51.530785	-0.093391	1.0
Nebuli	https://nebuli.com	51.519712	-0.087782	1.0
Neso Technology	http://www.nesotechnology.com	51.491101	-0.095174	1.0
Net AI	https://netai.tech	55.948101	-3.211252	1.0
Net0	https://net0.com/	51.507856	-0.141828	1.0
Netacea	http://www.netacea.com	53.483332	-2.246855	1.0
NeuCurrent	https://neucurrent.com/	51.417882	-0.081927	1.0
Neudata	https://www.neudata.co/	51.513275	-0.09066	1.0
NeuralSpace	http://www.neuralspace.ai	51.573072	-0.085331	1.0
Neural Alpha	http://neuralalpha.com	51.469578	-0.128355	1.0
Neural Edge	https://neuraledge.digital	50.883508	-2.798194	1.0
Neural Foundry Limited	http://www.neuralfoundry.co.uk	51.508836	-0.437036	1.0
Neural Guard	http://neuralguard.com	51.605113	-0.188692	1.0
Neural Machines	https://www.neuralmachines.co.uk/	51.511572	-0.093069	1.0
Neural Soft Solutions	http://www.neuralsoftsolutions.com	51.530785	-0.093391	1.0
Neural Technologies	https://www.neuralt.com/	51.002977	-0.950343	1.0
Neuralfinity	https://www.neuralfinity.com/	51.527304	-0.088894	1.0
Neural Capital (UK)	https://www.neuralcapital.com/	51.240262	-0.612113	1.0
Massive Analytic	http://www.massiveanalytic.com	51.521843	-0.084997	1.0
Mogees	https://www.mogees.co.uk/	51.537645	-0.057283	1.0
MODAL	http://www.modal.systems	51.486679	-0.180201	1.0
Medtech Accelerator	http://www.medtechaccelerator.co.uk/	52.244873	0.16735	1.0		1.0
Medwise.ai	http://www.medwise.ai/	51.514897	-0.123615	1.0
Meeow	https://www.meeow.com	53.797875	-1.553619	1.0
Melanin Matchmaker	http://www.melaninmatchmaker.co.uk	51.514897	-0.123615	1.0
Melior.AI	https://melior.ai	51.667169	-0.37169	1.0
Mentat Innovations	http://www.ment.at	51.523999	-0.110394	1.0
Mentionlytics	http://mentionlytics.com	51.530785	-0.093391	1.0
Medopad	http://www.medopad.com	51.491983	-0.125907	1.0
Mercuna	https://mercuna.com	55.946941	-3.201752	1.0
Mesg.ai	https://mesg.ai	51.514897	-0.123615	1.0
Mesh-AI	http://www.mesh-ai.com	50.723629	-1.958467	1.0
Mesmerix	http://mesmerix.co.uk	51.377997	-2.36067	1.0
Metadvice	https://www.metadvice.net/	51.506111	-0.13612	1.0
Metafused	http://www.metafused.com	51.522586	-0.08537	1.0
Metageni	http://www.metageni.com	51.521351	-0.104017	1.0
Metail	https://metail.com/	52.202652	0.124536	1.0
Mercury Labs	https://mercurylabs.io	51.493534	-0.148205	1.0
Metanoia	http://www.metanoia.co.uk	51.518543	-0.273926	1.0
MedimSight	https://www.medimsight.com	51.530785	-0.093391	1.0
Medicare Network	https://www.mednetsec.com	51.469403	-0.265564	1.0
Materialize.X	http://www.materializex.com/	51.498317	-0.176923	1.0
Materials Nexus	http://materialsnexus.com	51.420064	-0.309495	1.0
Math Labs	http://mathlabs.co.uk	51.412407	-0.207554	1.0
Matrix CPM	http://matrix-cpm.com	51.489933	-3.180266	1.0
Maxatta	http://www.maxatta.com	51.522322	-0.136554	1.0
Maybe*	http://www.maybetech.com	52.923301	-2.549081	1.0
McKarthy Labs	http://mckarthylabs.com	51.530064	-0.284957	1.0
MediLiVes	http://medilives.co.uk	51.507604	-0.073723	1.0
MDOTM	https://www.mdotm.eu	51.516961	-0.120561	1.0
Measmerize	http://www.measmerize.com	51.514897	-0.123615	1.0
measurable.energy	https://measurable.energy	51.454364	-0.976367	1.0
Measured Group	https://www.measured.agency/	51.527447	-0.088297	1.0
Mebomine	https://mebomine.com/	52.245354	0.106009	1.0
MedCircuit	https://www.medcircuit.com/	53.462959	-2.217351	1.0
MEDGURU	http://www.medguru.digital	53.008291	-2.224327	1.0
Media AID	http://mediaaid.uk	51.401071	-0.242833	1.0
Meal IQ	http://meal-iq.com	51.519712	-0.087782	1.0
Model Office	https://www.model-office.co.uk	51.652805	-0.198751	1.0
Metaphysic	https://metaphysic.ai	51.513182	-0.133483	1.0
Metis Analytics	http://metisanalytics.co.uk	51.514897	-0.123615	1.0
Mindtrace	http://www.mindtrace.ai	53.481196	-2.249601	1.0
MindVisionLabs	http://mindvisionlabs.com	51.533075	-0.105534	1.0
MindX	https://mindx.co/	51.507217	-0.142906	1.0
Mindzilla	https://mindzilla.com	51.523617	-0.085197	1.0
MINERVA	http://minerva.science/	52.454995	-2.042464	1.0
MIRALIS DATA	http://www.miralis.co.uk	54.044689	-2.797448	1.0
Mirriad Advertising	https://www.mirriadplc.com	51.501741	-0.10084	1.0
Mindtech	http://www.mindtech.global	51.70743	-0.441084	1.0
Mishi Software Limited	https://www.mishi.ai	51.547632	0.664393	1.0
Mithras Technologies	http://mithras-tech.co.uk	51.559644	-0.930175	1.0
MO Intelligence	http://mointelligence.com	51.778903	-1.265801	1.0
Mobihealth International	https://www.mobihealthinternational.com	51.514897	-0.123615	1.0
mobile Acuity	https://www.mobileacuity.com	55.955279	-3.194434	1.0
Mobilized Construction	https://www.mobilizedconstruction.com/	51.482397	-3.169616	1.0
Mobilus Labs	http://mobiluslabs.com/	51.525322	-0.09643	1.0
MoCaX Intelligence	http://www.mocaxintelligence.com	51.468592	-0.209251	1.0
MITA AI LTD	http://www.mita.ai	52.953042	-1.187119	1.0
Method Analytics	http://method-analytics.com	53.790877	-1.552175	1.0
Mindsync	http://mindsync.ai	51.521331	-0.15689	1.0
Mindset AI	https://www.mindset.ai/	51.586988	-0.230528	1.0
Metisox	https://metisox.com/	52.245354	0.106009	1.0
Mettle Capital	http://www.mettle.capital	51.436365	-0.043468	1.0
MICRA - Midlands Innovation Commercialisation of Research Accelerator	http://www.micragateway.org	52.453282	-1.92789	1.0		1.0
Micrima Limited	http://www.micrima.com	51.452049	-2.580762	1.0
Microblink	https://microblink.com/?utm_source=crunchbase&utm_medium=social&utm_campaign=crunchbase-page-info&utm_content=web-site	51.523126	-0.097949	1.0
Micrographia Bio	http://www.micrographiabio.com	51.480741	-0.200465	1.0
Microsoft SwiftKey	https://www.microsoft.com/en-us/swiftkey	51.502964	-0.095734	1.0
Mindstep	https://letsmindstep.com/	51.514394	-0.110921	1.0
Mifraneil Digital	http://www.mifraneildigital.com	51.514897	-0.123615	1.0
Miicare	http://miicare.co.uk	51.520592	-0.12221	1.0
Millimetric.ai	https://www.millimetric.ai	51.547405	-0.179678	1.0
Miltech-AI UK Ltd	http://www.miltech-ai.com	55.851073	-4.222598	1.0
Mimica	https://mimica.ai/	51.504656	-0.088617	1.0
Mimosil Technology	http://www.mimosil.com	51.127219	0.260062	1.0
Mind Foundry	http://mindfoundry.ai/	51.776788	-1.262545	1.0
Mind Senses Global	http://mindsenses.co.uk	51.514897	-0.123615	1.0
Migacore Technologies	https://migacore.com/	51.588873	-0.057133	1.0
IVF20.ai	http://www.ivf20.ai	51.523081	-0.139031	1.0
Recognyte	http://www.recognyte.com	51.509923	-0.0858	1.0
Recourse AI	http://recourseai.com	53.473768	-2.250625	1.0
TRIUM INFOSOLUTIONS LTD	http://triuminfo.co.uk/	51.678994	-0.39587	1.0
True AI	https://trueai.io/?utm_source=crunchbase	51.527033	-0.115631	1.0
TrueStock	http://truestock.io	54.592972	-5.930572	1.0
Trulience	http://trulience.com	51.516753	-0.179203	1.0
Trunarrative	https://trunarrative.com	53.797085	-1.540059	1.0
Trusted Data Technologies Ltd.	http://www.trytrusted.com	52.485827	-1.904615	1.0
Trybes Agency	https://www.trybesagency.com/	51.508749	0.018528	1.0
tripAbrood	https://tripabrood.com	51.527304	-0.088894	1.0
TUMRA	http://tumra.com/	51.494663	-0.276038	1.0
TurinTech AI	http://turintech.ai	51.519347	-0.089657	1.0
TuTeck	https://tuteck.com/	51.529267	-0.088088	1.0
TVSquared	https://www.tvsquared.com/	55.947267	-3.208791	1.0
tweedle	http://tweedle.io	51.514264	-0.091224	1.0
TypeGenie	https://www.typegenie.net	51.527033	-0.115631	1.0
ub hair	http://ubhair.net	51.524074	-0.076689	1.0
ubisend	http://www.ubisend.com	52.623584	1.298659	1.0
Turing Video Inc. UK	https://turing.ai/	51.758428	-1.131384	1.0
Ubok	https://www.ubok.app/	55.946941	-3.201752	1.0
Triomnia Capital Ltd	https://www.triomnia.com/	51.514897	-0.123615	1.0
traXR	http://traxr.io	54.971956	-1.589578	1.0
TQC	http://tqc.co.uk	52.958014	-1.125159	1.0
Trace Data Science	http://www.tracedatascience.com	51.522586	-0.08537	1.0
TraceSense	https://tracesense.com/	55.897099	-3.699636	1.0
Track A Face	http://trackaface.co.uk	51.587229	-0.201446	1.0
TrackMyGymLtd	http://www.trackmygym.com	55.949585	-3.187102	1.0
Tractable	https://tractable.ai/	51.526177	-0.088725	1.0
Tradeteq	http://www.tradeteq.com	51.514768	-0.083394	1.0
Trint	https://www.trint.com	51.514816	-0.069325	1.0
Trados	https://www.sdltrados.com	51.511494	-0.745107	1.0
TrafficSignals.ai	https://trafficsignals.ai	51.514897	-0.123615	1.0
Transcribo	https://transcribo.app	51.518467	-0.142405	1.0
Transflow	http://transflowlogistics.com	51.13042	1.281714	1.0
Transformative AI	http://transformative.ai/	51.542958	-0.023109	1.0
Translexy	http://translexy.com	51.240618	-0.173132	1.0
TravelAI	http://www.travelai.info	51.525032	-0.091296	1.0
Travtus	http://www.travtus.com	51.517295	-0.082265	1.0
Tradytics	https://www.tradytics.com	51.520925	-0.108088	1.0
Tower BC	http://towerbc.io	51.503756	-0.015093	1.0
Uhura Solutions	http://uhurasolutions.com	51.52398	-0.082601	1.0
UltraSoC Technologies	https://www.tessentembeddedanalytics.com/	52.210537	0.112119	1.0
V&V Health Innovations.Ltd	http://www.vvhealthinnovations.com	53.793305	-1.559876	1.0
V7	http://www.v7labs.com	51.493232	-0.147829	1.0
Vaarst	http://www.vaarst.com	51.456218	-2.583334	1.0
Vagus Health Ltd.	http://www.vagus.co	52.201787	0.115932	1.0
VAIX	https://vaix.ai	51.510472	-0.120742	1.0
Validata Group	https://www.validata-software.com	51.512968	-0.147774	1.0
Valkyrie Industries	http://www.valkyrieindustries.co.uk	51.546985	-0.023555	1.0
Utterworks	http://www.utter.works	51.433559	-0.518675	1.0
VALUE.MARKET	http://value.market	51.51611	-0.108979	1.0
Vamstar	http://vamstar.io	51.510668	-0.080782	1.0
Vantage Health	http://vantage.health	51.76755	-0.436999	1.0
Variable.io	http://variable.io	51.449897	-0.324858	1.0
Vastmindz	http://www.vastmindz.com	51.542454	-0.279424	1.0
Vaticle	https://vaticle.com	51.516389	-0.141769	1.0
vCloud.ai	http://vcloud.ai	51.516947	-0.104733	1.0
Velocity Black	https://velocity.black/	51.500057	-0.149651	1.0
Valueleaf	http://www.valueleaf.eu	51.531881	-0.298076	1.0
Ultraleap	http://ultraleap.com	51.451576	-2.579707	1.0
UtterBerry	https://utterberry.com	51.520037	-0.087898	1.0
USQRD	https://usqrd.com/	51.517326	-0.085936	1.0
Ultromics	http://www.ultromics.com/	51.752558	-1.265692	1.0
Umbrella	http://www.umbrellaanalytics.net	52.242969	0.716472	1.0
unhindr	http://www.unhindr.com	51.498489	-0.081712	1.0
Uni-Soft Systems Ltd.	http://uni-soft.co.uk/	52.951902	-1.18381	1.0
UnifAI Technology	http://unifaitechnology.com	51.525615	-0.083628	1.0
Unitary	http://unitary.ai	51.52339	-0.11669	1.0
Unlisted Ltd	http://www.unlistedvaluations.com	55.865464	-4.26894	1.0
Util	https://util.co	51.519362	-0.175784	1.0
UnLtd	http://unltd.org.uk/	51.522664	-0.092935	1.0		1.0
Untapped AI	http://untapped.ai/	51.595556	-0.152414	1.0
Untrite	http://www.untrite.com	51.516945	-0.077927	1.0
Unyte.AI	https://unyte.ai/	51.537812	-0.130658	1.0
Upp Technologies	https://upp.ai	51.516838	-0.137787	1.0
upUgo	https://upugo.com/	51.447951	-2.582264	1.0
Urbanchain	http://urbanchain.co.uk	53.463089	-2.238424	1.0
UrbanTide	http://urbantide.com/	55.946941	-3.201752	1.0
Unmanned Life	http://unmanned.life/	51.527772	-0.086882	1.0
Velocity Data Entry	http://data-entry.io	51.190726	0.281959	1.0
TouchByte	http://www.touchbyte.co.uk/	50.161823	-5.076174	1.0
Total Chatbots	http://www.totalchatbots.com	55.865298	-4.254994	1.0
Tectonic IP	https://www.tectonicai.com/	51.75438	-1.2232	1.0
TeknTrash	http://tekntrash.com	51.504938	-0.019496	1.0
Temenos	https://www.temenos.com/	51.512505	-0.07876	1.0
Tempo	http://www.tempo.org/_v3	52.03653	-0.767728	1.0
Temporall	http://www.temporall.com	51.485125	-0.118828	1.0
Tended	https://tended.co.uk/index.html	53.22758	-0.558582	1.0
Tenderlake	https://www.tenderlake.com/	51.519712	-0.087782	1.0
Techstars London	http://techstars.com	51.523891	-0.083802	1.0		1.0
Tenyks	http://tenyks.ai	52.214018	0.125064	1.0
Tessian	https://www.tessian.com/	51.519645	-0.084083	1.0
Test-Track-Monitor Limited	http://www.test-track-monitor.com	54.505061	-1.30757	1.0
TEXpert AI	http://www.texpertai.co.uk	51.514897	-0.123615	1.0
Text Mining Solutions	https://www.textminingsolutions.co.uk/	51.50524	-0.080434	1.0
TextRazor	https://www.textrazor.com	51.525615	-0.083628	1.0
Texture AI	https://texture.ai	51.4613	-0.059029	1.0
Thalesians	https://thalesians.com/	51.500208	-0.174758	1.0
Terrabotics	https://www.terrabotics.co.uk/	51.495164	-0.127448	1.0
The AI Guy	http://www.theaiguy.tech	51.610749	-0.359773	1.0
Techspert.io	http://techspert.io	52.205718	0.133025	1.0
Teamflow	http://teamflow.webflow.io/	51.494152	-0.062881	1.0
SyntheticGestalt	http://syntheticgestalt.com	51.515383	-0.134474	1.0
Synthetix	https://synthetix.com/	51.875927	0.262706	1.0
SYPWAI	https://sypwai.com/	51.598071	-0.11027	1.0
T.H.I.E. Solutions	https://thiesolutions.com	51.534498	-3.123482	1.0
Tactful	https://tactful.ai	52.272706	0.18039	1.0
TagDox	http://www.tagdox.com	51.506191	-0.137183	1.0
TagMaster	http://tagmaster.com	51.821363	-0.83165	1.0
TechNation Applied AI Programme	https://technation.io/programmes/applied-ai/	51.519645	-0.084083	1.0		1.0
Taia Translations	https://taia.io	51.514897	-0.123615	1.0
Talee	http://talee.co.uk	51.590861	-0.1644	1.0
TalentHunter.AI	http://www.talenthunter.ai	51.527304	-0.088894	1.0
Talking Medicines	http://www.talkingmedicines.com	55.86343	-4.264235	1.0
TalkingPoint	http://www.talkingpoint.uk.com/	52.015682	-0.794035	1.0
Tallarium	http://tallarium.com	51.514295	-0.140168	1.0
Talupp	http://www.talupp.com	51.498063	-0.097941	1.0
Team Wheel	https://teamwheel.co	51.901904	-2.083221	1.0
Tailify	http://www.tailify.com	51.527135	-0.08146	1.0
Touch Surgery	https://www.touchsurgery.com	51.528383	-0.09346	1.0
The Black Arrows	https://www.theblackarrows.co.uk	50.314756	-4.011534	1.0
The CAI Company	http://www.thecaicompany.com	51.40448	-2.455416	1.0
Think ABM	http://www.thinkabm.com	51.514897	-0.123615	1.0
Think UAV Group	http://www.thinkuav.co.uk	52.072442	0.57361	1.0
ThinkAnalytics	http://thinkanalytics.com/	55.867057	-4.272995	1.0
Thinking Elements	http://thinking-elements.com	51.520592	-0.12221	1.0
ThinkSense.ai	http://thinksense.ai	51.504937	-0.019523	1.0
ThinkSono	https://thinksono.com/	51.526864	-0.286427	1.0
ThinkTank Maths	https://www.thinktankmaths.com/	55.962168	-3.182584	1.0
Thingful	http://thingful.net	51.52602	-0.084174	1.0
ThKeeper	http://www.thkeeper.com	51.507462	-0.11262	1.0
Thread	https://www.thread.com/	51.513297	-0.072085	1.0
Thundr.ai	https://thundr.ai/	53.470772	-2.261169	1.0
Tidyquant	https://www.tidyquant.com	53.809471	-1.544338	1.0
Tisquantum Limited	http://www.tisquantum.ltd	53.832265	-1.39239	1.0
Tocabot	http://tocabot.io	51.457575	-0.9702	1.0
Topicseed	http://topicseed.com	51.527304	-0.088894	1.0
TorcAI Digital Media Private Limited , TorcAI UK Limited	http://torcai.com	51.542958	-0.023109	1.0
ThoughtRiver	https://thoughtriver.com	52.232284	0.151169	1.0
The Bot Forge	https://www.thebotforge.io	51.84392	-0.922629	1.0
ThingCo	http://www.thingco.com	51.513743	-0.086245	1.0
TheHub.ai	https://thehub.ai/home	51.463549	-0.36705	1.0
The Data City	https://www.thedatacity.com/	53.796838	-1.533909	1.0
The Data Lab Community	https://community.thedatalab.com/	55.94527	-3.186426	1.0
The Examiners	https://theexaminers.co.uk	51.525615	-0.083628	1.0
The Face Recognition Company	http://thefacerecognitioncompany.com	51.719229	-1.971253	1.0
The Intelligent Brief	https://www.theintelligentbrief.com	51.519091	-0.139742	1.0
The Making Rooms	http://www.makingrooms.org	53.750186	-2.48403	1.0		1.0
The Modular Analytics Co.	http://www.tmac.ai	53.484538	-2.23176	1.0
TheWaay	http://thewaay.space	51.523891	-0.083802	1.0
The Pro Box	http://www.theprobox.com	51.528568	-0.131758	1.0
The Small Robot Company	http://www.smallrobotcompany.com	51.132441	-1.737815	1.0
The Socialisers	http://www.thesocialisers.com	51.520592	-0.12221	1.0
The Square Tech Group	https://www.thesquareapp.com/	51.555344	-0.077013	1.0
The Ultra PRT	http://ultraprt.co.uk	51.49131	-0.26513	1.0
The Whole Caboodle	http://thewholecaboodle.com	53.994708	-1.534189	1.0
TheAIWorks Inc	http://theai.works	51.519893	-0.130253	1.0
TheFamily	http://thefamily.co	51.505085	-0.110646	1.0		1.0
The Scaleup Accelerator	https://thescaleupaccelerator.com/	51.503607	-0.091122	1.0		1.0
Synthesized	https://synthesized.io/	51.530275	-0.110912	1.0
VenAutomate	https://www.venautomate.com/	51.543437	-0.46506	1.0
vendi	http://vendiapp.com	51.537812	-0.130658	1.0
Workwell	http://workwelltoday.co.uk	51.507379	-0.106834	1.0
Worldfree	http://www.worldfree.com	51.508679	-0.144417	1.0
WorldLabs	http://www.worldlabs.org	51.537812	-0.130658	1.0
WOW Intelligence	http://wowintelligence.com	53.420569	-2.30662	1.0
Wrapidity	http://wrapidity.com/	51.524074	-0.076689	1.0
WREX (World Real Estate Xchange)	http://www.wrex.co	51.510708	-0.145862	1.0
Wright AI	http://www.wrightai.com	53.797516	-1.540039	1.0
Working Eye Limited	http://www.workingeye.com	51.51452	-0.122535	1.0
Writerly	https://writerly.ai	51.514897	-0.123615	1.0
x-Sentience Limited	https://www.x-sentience.com	52.233766	0.146114	1.0
Xapien	http://www.xapien.com	51.534239	-0.121995	1.0
Xceptor	http://www.xceptor.com	51.515628	-0.093635	1.0
XClaimitâ¢	http://xclaimit.io	51.530785	-0.093391	1.0
Xelix	http://www.xelix.com	51.527772	-0.086882	1.0
XENDL SOFTWARE LTD	http://xendl.com/	51.514316	-0.104957	1.0
Xenesis	http://xenesis.com	51.240262	-0.612113	1.0
Wundercoin	https://wundercoin.co/	51.514897	-0.123615	1.0
xense.ai	https://www.xenseai.com	51.568983	-0.377394	1.0
WorkDigital	http://workdigital.com	51.339464	-0.81594	1.0
Wordnerds	http://wordnerds.ai	54.966398	-1.596194	1.0
Winnow	http://winnowsolutions.com	51.527624	-0.083875	1.0
Winterwell Associates	https://www.winterwell.com/	53.403157	-2.161169	1.0
WiredVibe	http://wiredvibeapp.com	51.521071	-0.108972	1.0
wireWAX	https://www.wirewax.com	51.517204	-0.13348	1.0
Wisdom Works Group	https://wisdom.tech	52.386998	-1.558103	1.0
Wise.Blue	http://wise.blue	51.514484	-0.080463	1.0
WiseAnalytics.io	https://wiseanalytics.io/	51.514897	-0.123615	1.0
Work-books Ltd	http://www.work-books.uk	55.95368	-3.194353	1.0
WisePricing	https://www.wisepricing.com	51.490707	-0.181389	1.0
Wissenroad	http://www.wissenroad.com	51.466543	-2.543402	1.0
Within	http://www.within.life	51.240262	-0.612113	1.0
wizdom.ai	https://www.wizdom.ai	51.644412	-1.262566	1.0
Wluper	https://wluper.com/	51.518118	-0.112514	1.0
Wonder Industries	https://thewind.io/	51.514897	-0.123615	1.0
Woodseer Global	http://www.woodseer.global	51.520857	-0.109068	1.0
Wootzano	http://www.wootzano.com	54.669577	-1.451842	1.0
Wiserfunding	http://www.wiserfunding.com	51.509974	-0.086735	1.0
Wingman AI Agents	https://wingman.ai	51.518879	-0.133095	1.0
Xerini	https://xerini.co.uk	51.546985	-0.023555	1.0
XMED iQ - International Group	https://xmediq.com/	51.519052	-0.148103	1.0
ZAQ	https://www.zaq.ai	51.482795	-0.424424	1.0
ZBEST TECHNOLOGY	http://zbest.technology	51.540507	0.003551	1.0
Zebra Workforce Technology	http://www.zebrastaffing.com	53.278319	-2.90303	1.0
ZEG.ai	https://www.zeg.ai/	51.523602	-0.199933	1.0
Zegami	http://zegami.com	51.752558	-1.265692	1.0
Zeno Vision	http://zenovisionltd.com	50.724026	-3.538155	1.0
Zenshin Talent	http://zenshin-talent.com	51.358373	-0.146433	1.0
ZappyAI	https://zappy.ai/	51.523891	-0.083802	1.0
ZEOY Consulting	https://www.zeoy.co.uk	51.517691	0.171971	1.0
ZipCharge	http://www.zipcharge.global	51.527304	-0.088894	1.0
ZISHI Adaptive	https://thezishi.com/about-zishi-adaptive/	51.407972	0.015065	1.0
Ziva Robotics	http://zivarobotics.com	55.94527	-3.186426	1.0
ZOA Robotics	http://www.zoarobotics.com/	51.544206	-0.02356	1.0
ZOI	https://zoi.ai	51.530785	-0.093391	1.0
Zoom Abroad	http://www.zoomabroad.com	51.773282	-0.434612	1.0
Zoral	https://zorallabs.com	51.51641	-0.0888	1.0
Zinia	http://www.zinia.ai	51.525615	-0.083628	1.0
Xihelm	http://www.xihelm.com/	50.75889	-2.074734	1.0
Zanran	http://www.zanran.com	51.547154	-0.102555	1.0
Zaiku Group	http://zaikugroup.com	53.410175	-2.993798	1.0
XMOS	https://www.xmos.ai	51.44982	-2.596464	1.0
XpertRule	http://xpertrule.com	53.492926	-2.274434	1.0
XR Doctor (by Smartymed)	https://xr-doctor.com	51.520592	-0.12221	1.0
Xworks Tech	http://xworks-tech.com	51.525615	-0.083628	1.0
Yabber Global	https://yabberglobal.com/	51.623011	-0.770005	1.0
yaiLab	https://yailab.com	55.958374	-3.202282	1.0
Yepic AI	https://www.yepic.ai/	51.494152	-0.062881	1.0
Zama Digital	https://www.zamadigital.com/	52.412856	0.744301	1.0
YooFreight	https://yoofreight.com/	51.514897	-0.123615	1.0
YouDiagnose	http://youdiagnose.online	51.520592	-0.12221	1.0
YouMakr	https://youmakr.com/	51.621547	-0.295286	1.0
Yours App	https://yoursapp.com/	51.507512	-0.136596	1.0
YouShore	https://www.youshore.com/	51.581186	-0.262306	1.0
YU	http://www.you-understood.com	56.0524	-2.703509	1.0
YUTY	https://www.yuty.me/	51.514897	-0.123615	1.0
Z RESEARCH	http://zresearch.ai	51.751734	-1.254725	1.0
Yooz UK	https://www.getyooz.co.uk	51.206286	-0.820932	1.0
VendGo	https://www.vendgo.ai/	52.252189	-0.917587	1.0
Win FX	http://www.winfx.co	51.513769	-0.082324	1.0
WildMeta	https://www.wildmeta.com	51.527304	-0.088894	1.0
Viseum UK Group	https://www.viseum.co.uk/	51.633364	-0.175519	1.0
Visii	https://www.visii.com	51.507604	-0.073723	1.0
Visio Ingenii	http://www.visioingenii.com	52.035278	-0.760497	1.0
Vision RT	https://www.visionrt.com/	51.599404	-0.193789	1.0
Vision Semantics Limited	http://www.visionsemantics.com	51.524636	-0.04071	1.0
Vision4ce	http://www.vision4ce.com	51.406742	-0.847386	1.0
Visitor Insights Ltd	https://www.visitorinsights.ai	51.603197	-0.192104	1.0
Virtuoso	http://www.virtuoso.qa	51.521236	-0.087488	1.0
Visokio	https://visokio.com/	51.517882	-0.145196	1.0
Visual Cognition AI	https://visualcognition.co/	52.198361	0.120673	1.0
Visual PM	http://www.visualpm.co.uk	53.479829	-2.24566	1.0
Vitaq.io	http://www.vitaq.io	51.997312	-0.743061	1.0
Vivacity Labs	https://vivacitylabs.com/	51.550098	-0.144362	1.0
Vivo Analytics	http://www.vivoanalytics.com	52.402958	-1.504161	1.0
Vixen Intelligence	http://www.vixenintelligence.com	51.542337	-0.147764	1.0
VIZGARD	https://vizgard.com	51.521071	-0.108972	1.0
Visual Atoms	http://www.visualatoms.com/	51.240262	-0.612113	1.0
Vizi Education	http://vizi.education	52.460264	-1.959094	1.0
Virtual Pricing Director	https://www.virtualpricingdirector.com/	51.382828	-2.359875	1.0
Virolens	https://virolens.keyoptions.com/	51.514897	-0.123615	1.0
VentureRadar	http://www.ventureradar.com/	50.837127	-0.14573	1.0
Verbo AI	http://verbo.ai	51.595514	-0.24339	1.0
VerifiedVisitors	https://www.verifiedvisitors.com	51.511276	-0.14874	1.0
Verifoxx	https://verifoxx.com/	51.527304	-0.088894	1.0
Versed AI	https://versed.ai	51.486582	-0.20663	1.0
Verv	https://www.verv.energy/	51.49321	-0.14358	1.0
Vesynta	http://www.vesynta.com	51.522973	-0.132217	1.0
Virtual AI	https://www.virtualai.co.uk	51.754785	-0.584764	1.0
Vet-AI	http://www.vet-ai.com	53.805411	-1.550354	1.0
Vicon	http://www.vicon.com	51.804232	-1.299748	1.0
VIDRONA	http://www.vidrona.com	51.574887	-1.314517	1.0
Vigil AI	http://vigilai.com	51.503874	-0.100376	1.0
Viko Ai	http://www.viko.co.uk	51.514897	-0.123615	1.0
Vimma	http://vimma.ai	51.530785	-0.093391	1.0
Vincix Group	http://vincixgroup.com	51.50646	-0.127532	1.0
Vinehealth	https://www.vinehealth.ai	51.521843	-0.084997	1.0
Viapontica AI	http://viapontica.ai	55.94527	-3.186426	1.0
Wiltech Enterprises	https://wiltechenterprises.com/	51.468373	0.119348	1.0
Vochlea Music	http://www.vochlea.com	51.504262	-0.057103	1.0
VoiceIQ	https://voiceiq.ai	53.470746	-2.214271	1.0
Wayra	https://www.wayra.uk	51.510601	-0.136888	1.0		1.0
WDMP	http://wdmp.co.uk	51.506846	-0.097244	1.0
We Build Bots	http://wbb.ai	51.505489	-0.124186	1.0
We In Social Tech	https://www.weinsocialtech.co.uk/	51.519018	-0.058133	1.0		1.0
WealRo	http://www.wealro.com/	51.712937	-0.454103	1.0
Webgenius	http://webgenius.online	51.520592	-0.12221	1.0
WeSEE	http://www.wesee.com	51.494693	-0.018368	1.0
Waypoint AI	http://waypointai.com/	51.519146	-0.182837	1.0
Westamerica Ltd.	https://west-am-uk.com	51.881559	-0.176468	1.0
Whichit	http://whichit.co	51.523617	-0.085197	1.0
Whisk.com	https://whisk.com/	52.481661	-1.899735	1.0
Whisp	https://whisp.ai	51.514897	-0.123615	1.0
White Bullet Solutions Limited	http://www.white-bullet.com	51.493393	-0.226335	1.0
White Label Loyalty	https://whitelabel-loyalty.com/	53.798727	-1.553169	1.0
WiiA	http://www.wiia.io	51.514897	-0.123615	1.0
WiiBit	https://www.wiibit.co.uk/	51.521843	-0.084997	1.0
WhenFresh	https://www.whenfresh.com	51.514981	-0.101053	1.0
Voice Technologies	http://www.voicetechnologies.co.uk	53.511735	-2.560793	1.0
Waymark Tech	http://www.waymark.tech	51.516365	-0.138527	1.0
WAY2PAY | Conversational AI	https://www.way2pay.io/	52.988189	-1.209625	1.0
Volatile	http://volatile.ai	51.494152	-0.062881	1.0
Volume	https://volume.ai/	51.411704	-0.798013	1.0
Vortexa	http://www.vortexa.com/	51.513504	-0.07608	1.0
Vouchery.io	http://www.vouchery.io	51.525615	-0.083628	1.0
VSaaS Cloud	http://www.vsaas.cloud	52.899533	-1.460082	1.0
Vuntie	https://www.vuntie.com	51.520592	-0.12221	1.0
VView Technologies	https://www.vviewtech.com	52.690921	-1.796342	1.0
WAY2VAT (ASX: W2V)	http://www.way2vat.com	51.497399	-0.134981	1.0
Vyking	http://www.vyking.io	51.361065	-0.195065	1.0
Waive	https://www.letswaive.com	51.527304	-0.088894	1.0
Warwick Analytics	http://www.warwickanalytics.com	51.528568	-0.078216	1.0
Warwick Warp	http://www.warwickwarp.com/	52.386998	-1.558103	1.0
WatchMyCompetitor.com	https://www.watchmycompetitor.com/	51.501741	-0.10084	1.0
WatchOUT! AI	http://watchoutai.com	51.538987	0.051517	1.0
Wattl	http://wat.tl	53.463089	-2.238424	1.0
Way With Words	http://waywithwords.net	51.514171	-0.12331	1.0
vyntelligence	http://vyntelligence.com	51.518194	-0.170767	1.0
Recordsure	https://www.recordsure.com	51.509142	-0.08481	1.0
Synthesia	https://www.synthesia.io	51.513633	-0.136952	1.0
SynTech Centre for Doctoral Training (CDT)	https://www.syntechcdt.com/	52.197949	0.125088	1.0
Science Entrepreneur Club	https://www.science-entrepreneur.com	51.510845	-0.23522	1.0		1.0
SciGood	https://www.scigood.com	51.509864	-0.083745	1.0
Scissero	http://scissero.com	51.502714	-0.019348	1.0
Scorpion Vision	http://www.scorpionvision.co.uk	50.769985	-1.546664	1.0
Scottish Space Incubator	https://startup.scotlandin.space	55.85694	-4.244187	1.0		1.0
Scribe Labs	https://scribelabs.ai/	51.514897	-0.123615	1.0
SDART	http://sdart.co.uk/	53.480205	-2.232219	1.0
Science Creates	http://www.sciencecreates.co.uk	51.446562	-2.57403	1.0		1.0
Searchlab	http://www.searchlabglobal.com	51.513203	-0.154585	1.0
Seclea	https://seclea.com	51.424814	-0.566745	1.0
Secondmind.ai	https://www.secondmind.ai/	52.196849	0.129235	1.0
SECQAI	https://www.secqai.com	51.513157	-0.15637	1.0
Secret Source Sentiment Analysis	https://secretsourcemarketing.com/contact-us/	52.674598	-0.313528	1.0
SectorExecutive	http://sectorexecutive.com	51.527304	-0.088894	1.0
Secure Redact	http://secureredact.co.uk	51.510925	-0.117708	1.0
SecurMind	https://www.securmind.com/	51.510047	-0.424867	1.0
Sechoia	https://sechoia.com	50.17158	-5.128122	1.0
See.Sense	http://www.seesense.cc	54.584603	-5.703291	1.0
Schwarzthal Tech	http://www.schwarzthal.tech	51.603466	-0.297278	1.0
Scarlette AI	http://www.scarletteai.com	51.583407	-0.559423	1.0
salesBeat	http://www.salesbeat.co	51.529957	0.036636	1.0
Salina Health Ltd	https://www.salina.ai/	51.517437	-0.139795	1.0
Sally Guide	https://www.sally.guide	51.651389	-0.222645	1.0
Samplico	https://samplico.com	51.513579	-0.118377	1.0
Sanction AI	http://www.sanction.ai	51.514897	-0.123615	1.0
Sanction Scanner	https://sanctionscanner.com/	51.520592	-0.12221	1.0
Santana Studios	https://www.santanastudios.co.uk	50.721097	-1.877644	1.0
Scholarcy	https://www.scholarcy.com/	51.514897	-0.123615	1.0
SasaDigital	http://www.sasadigital.net	51.514897	-0.123615	1.0
SATAVIA	https://satavia.com	52.214543	0.112837	1.0
SATIS.AI	https://www.satis.ai	51.53197	-0.096165	1.0
Satori Analytics	http://www.satorianalytics.com	51.482165	-0.134422	1.0
Save Your Wardrobe	https://www.saveyourwardrobe.com	51.751986	-0.342584	1.0
Savitec	http://savitec.co.uk	54.972376	-1.58553	1.0
Scaled Insights	http://www.scaledinsights.com	53.805411	-1.550354	1.0
Scarcer	http://scarcer.co.uk	54.045878	-2.792935	1.0
Satalia	http://www.satalia.com	51.522322	-0.136554	1.0
SAIV	https://www.saiv.io/	52.233766	0.146114	1.0
Segmentify	http://www.segmentify.com	51.511556	-0.093341	1.0
Seldon	https://www.seldon.io/	51.523891	-0.083802	1.0
Sermaurei	http://sermaurei.uk	51.530785	-0.093391	1.0
Service Certainty	http://servicecertainty.co.uk	51.637127	0.337165	1.0
Service Robotics	http://www.genieconnect.co.uk	51.499618	-2.551821	1.0
Setient	https://setient.com	51.696773	-0.191421	1.0
SETsquared Bristol	http://www.setsquared-bristol.co.uk	51.448923	-2.583545	1.0		1.0
SETsquared Surrey	http://www.surreyincubation.co.uk/	51.240262	-0.612113	1.0		1.0
Shadow Robot Company	http://shadowrobot.com	51.556016	-0.148406	1.0
Serenity AI	https://serenityai.com/	51.556606	-1.786029	1.0
Shaping Tomorrow	http://www.shapingtomorrow.com	50.935288	-0.174392	1.0
SharemyInsight	http://www.sharemyinsight.com	51.36199	-1.163276	1.0
SharkGate	http://sharkgate.net	51.522549	-0.087491	1.0
Sharktower	http://sharktower.com	55.952553	-3.201205	1.0
Sharpe Analytics	http://sharpeanalytics.com/	53.271672	-1.40666	1.0
Sherbourne Recycling	http://www.sherbournerecycling.co.uk	52.40709	-1.507613	1.0
Shift	https://shift.online/en-gb/	51.533075	-0.105534	1.0
Shipping Strategy	http://shippingstrategy.com	52.221005	-0.072367	1.0
SHARE Creative	http://www.sharecreative.com	51.524683	-0.088643	1.0
SegmentStream	https://segmentstream.com/	51.513377	-0.083006	1.0
Serendipity AI	http://www.serendipityai.co.uk	51.53913	-0.147205	1.0
Sequestim	http://www.sequestim.com/	51.600639	-1.291502	1.0
SellOnSocial	http://www.sellonsocial.co.uk	50.726739	-1.879324	1.0
Semantic Evolution	https://www.semantic-evolution.com/	51.511609	-0.087199	1.0
Semarion	http://semarion.com	52.17238	0.142455	1.0
Semasphere	http://www.semasphere.com	51.410878	-0.185354	1.0
Semeris	http://semeris.com	51.527897	-0.126912	1.0
Senseon	https://www.senseon.io	51.506305	-0.134167	1.0
Senseye	http://www.senseye.io/	50.961071	-1.424801	1.0
Seraphim Space Camp	https://seraphim.vc/accelerator/	51.521974	-0.08413	1.0		1.0
Sensing Feeling	https://sensingfeeling.io	51.525615	-0.083628	1.0
Sensyne Health	http://sensynehealth.com	51.715071	-1.223223	1.0
Sentient Machines	http://sentientmachines.tech/	51.509974	-0.086735	1.0
Sentiment Search	https://www.sentimentsearch.com/	51.504937	-0.019523	1.0
SentiSum	http://www.sentisum.com/	51.514772	-0.072095	1.0
SÄon Diagnostics Ltd	http://www.seondx.com	51.99343	-1.474455	1.0
Septillion Technologies	http://septillion.co.uk	56.08261	-3.401598	1.0
Sequence	http://sequence.work	52.448809	-1.887729	1.0
Sensitrust	https://www.sensitrust.io/	51.484738	-0.319534	1.0
Shufti Pro	http://www.shuftipro.com	51.504938	-0.019496	1.0
SAIEVE	http://www.aieve.io	52.402958	-1.504161	1.0
Saffe	http://saffe.ai	51.526926	-0.08735	1.0
reportbrain	http://www.reportbrain.com	51.515484	-0.189574	1.0
Reporting Insight.AI	http://www.reportinginsight.ai	51.520321	-0.10145	1.0
Respiratory Analytics	http://www.afloanalytics.com	55.027292	-7.274759	1.0
Resume Worded	http://resumeworded.com	51.514455	-0.111772	1.0
Retechnica	http://www.retechnica.com/	51.518921	-0.150631	1.0
Reti Health	https://retihealth.com/	51.529267	-0.088088	1.0
Reveal My Food	http://revealmyfood.com	51.513034	-0.026005	1.0
Renalytix AI	http://renalytix.com	51.512937	-0.088686	1.0
Reveela Technologies	http://www.reveela.com	54.972946	-1.608363	1.0
Rewire	http://www.rewire.online	51.895533	-2.077251	1.0
Rezatec	http://www.rezatec.com/	51.5835	-1.310979	1.0
rFpro	http://www.rfpro.com/	51.346376	-2.238778	1.0
Rhodes Incubator	http://www.rhodesincubator.com	51.757607	-1.25499	1.0		1.0
RHYTHM AI	http://rhythm-ai.com	51.517187	-0.102878	1.0
richchat	https://richchat.com	55.95461	-3.196161	1.0
Ricochet.ai	http://ricochet.ai	54.972946	-1.608363	1.0
RevLifter	https://www.revlifter.com	51.522322	-0.136554	1.0
Rideshur	https://rideshur.com/	51.495618	-0.224269	1.0
Remo.ai	https://remo.ai/	51.490213	-0.133931	1.0
Remark AI	https://www.remarkai.co.uk/	51.508413	-0.106932	1.0
Recruitment Smart	http://www.recruitmentsmart.com	51.528157	-0.117329	1.0
RECYCLEYE	http://www.recycleye.com	51.525322	-0.09643	1.0
Red Digital China	http://www.reddigitalchina.com	51.530064	-0.284957	1.0
Red Octopus Innovation	http://redoctopusinnovation.com	51.582306	-0.194954	1.0
Red Sift	https://redsift.com/	51.514962	-0.136292	1.0
Redbrain	https://www.redbrain.com	51.352388	-0.667951	1.0
Rediscovery.io	http://rediscovery.io	51.493319	-0.232734	1.0
Remarkable Focus	https://www.remarkablefocus.ai/	51.457575	-0.9702	1.0
Redtech Digital	http://redtechdigital.co.uk	51.519112	-0.181704	1.0
Refresh Business	http://refreshbusiness.co.uk	52.747614	-1.469194	1.0
Regeo	http://regeo.co	51.515273	-0.096284	1.0
Regtech Index	https://www.regtechindex.com/index.html	51.422357	-0.191439	1.0
Regulation Technologies	http://regulationtechnologies.com	51.141072	-2.835021	1.0
Regvolution	http://regvolution.com/	51.514897	-0.123615	1.0
Reijin	https://reijin.health	51.516961	-0.120561	1.0
Relative Insight	https://relativeinsight.com	51.504575	-0.098016	1.0
Refract	https://www.refract.ai	54.972382	-1.623428	1.0
SAI	http://www.saigroups.co.uk	51.518467	-0.142405	1.0
Rimilia	https://www.blackline.com/cash-application/	51.516961	-0.120561	1.0
Ripjar	https://ripjar.com/	51.894076	-2.07666	1.0
RoleCatcher.com	http://www.rolecatcher.com	51.878502	0.942205	1.0
Rooster Insurance	http://www.joinrooster.co.uk	51.525615	-0.083628	1.0
RootspaceAI	http://www.rootspace.ai	51.520592	-0.12221	1.0
Rosa Biotech	http://rosabio.tech	51.446562	-2.57403	1.0
Ross Robotics	http://rossrobotics.com	51.479475	-0.856105	1.0
Rosslyn Analytics	https://www.rosslyndatatech.com/	51.511263	-0.12695	1.0
Rossum	https://rossum.ai/	51.514897	-0.123615	1.0
Rocky	https://www.rocky.ai	53.771203	-2.727347	1.0
RotaGeek	http://www.rotageek.com	51.514897	-0.123615	1.0
Rovco	http://www.rovco.com/	51.456218	-2.583334	1.0
Ruffle for Dogs	https://rufflefordogs.com	50.347892	-4.087489	1.0
RULAsys	http://www.rulasys.com	53.686378	-1.62565	1.0
RwHealth	https://realworld.health	51.504937	-0.019523	1.0
Ryelore Ai	http://www.ryelore.com	51.524057	-0.084602	1.0
S2T Unlocking Cyberspace - AI-Powered Investigations,WEBINT, OSINT, FUSION	http://www.s2t.ai	51.513473	-0.593101	1.0
SafeToNet	https://safetonet.com/en-gb/	51.513579	-0.118377	1.0
Rothko Investment Strategies	http://www.rothko.com	51.515647	-0.094928	1.0
Rinkt	http://www.rinkt.com	51.516936	0.047343	1.0
Roby.AI	http://www.roby.ai	51.506044	-0.151239	1.0
Robotriks	http://robotriks.co.uk	50.358701	-4.672668	1.0
RippleXn	https://ripplexn.com/	52.329961	-0.187406	1.0
Rise, created by Barclays	https://rise.barclays	51.523891	-0.083802	1.0		1.0
RL Vehicle Management Solutions	http://rlvms.com	51.403558	-0.759295	1.0
Robin AI	http://robinai.co.uk	51.513336	-0.091105	1.0
Robionics	http://robionics.com	52.219615	0.109315	1.0
RoboBIZZ	http://www.robobizz.com	51.530785	-0.093391	1.0
RoboCap	https://www.robocapfund.com/	51.5047	-0.1487	1.0
Robots of London	https://www.robotsoflondon.co.uk	51.673013	0.133412	1.0
Robocore	http://robocore.co	50.827089	-1.225382	1.0
RobometricsÂ® Machines	http://skive.it/robometrics	52.684394	-2.424406	1.0
Robomoco	http://robomoco.com	51.694379	-0.412	1.0
Robonetica	http://www.robonetica.com	51.492692	-0.204604	1.0
Roborace	http://roborace.com/	51.493039	-0.20363	1.0
RoboRecruiter inc	http://www.roborecruiter.ai	51.510801	-0.08333	1.0
Robosys Automation	http://www.robosysautomation.com	51.514897	-0.123615	1.0
Robotcube	http://www.robotcube.co.uk	52.380643	-1.242686	1.0
RoboK	http://robok.ai	52.214018	0.125064	1.0
Synthace	https://www.synthace.com	51.514142	-0.227099	1.0
SI Units Consulting	http://siunits.co.uk	51.423049	0.112345	1.0
Sidaway Technologies	http://sidaway.com	52.104819	-2.311898	1.0
Spruce Mobile Ltd	http://spruce-mobile.com/?rdr=linkdcp	51.409558	-0.225952	1.0
SPRYT	http://spryt.com	51.530785	-0.093391	1.0
SPYRAS	http://www.spyras.com	51.518467	-0.142405	1.0
Squad Global	https://squadshop.eu/	51.585481	-0.360213	1.0
Stable	https://www.stableprice.com	51.505519	-0.124401	1.0
Stackgate	http://www.stackgate.co.uk	51.607225	-0.068423	1.0
Stafftimer LTD	http://www.stafftimerapp.com	51.530785	-0.093391	1.0
Sprout.ai	http://sprout.ai	51.651526	-3.914068	1.0
Stak	https://stak.co/	51.501214	-0.16201	1.0
StartAd Digital	https://startad.co.uk	51.530785	-0.093391	1.0
StartupBootCamp IOT | Connected Devices London	https://www.startupbootcamp.org/accelerator/iot-connected-devices/	51.521036	-0.081185	1.0		1.0
Statathlon	https://statathlon.com/	51.550642	-0.165788	1.0
Statmetrix	http://statmetrix.co	51.522662	-0.107768	1.0
StatusToday	https://blog.statustoday.com/	51.514772	-0.072095	1.0
Stevenage BioCatalyst	http://www.stevenagecatalyst.com	51.884926	-0.20197	1.0		1.0
Still Good	https://stillgood.today/	51.50069	-0.152133	1.0
Starcount	http://www.starcount.com/	51.520101	-0.141661	1.0
Stin Jee Limited	http://stinjee.com	51.514897	-0.123615	1.0
SpriveApp	http://www.sprive.com	51.51138	-0.090235	1.0
Spread Your Wings	http://spreadyourwings.io	51.530785	-0.093391	1.0
Speech Graphics	https://www.speech-graphics.com/	55.946941	-3.201752	1.0
SpeechIntelligence.com	https://speechintelligence.com	51.519542	-0.098888	1.0
Speechmatics	https://www.speechmatics.com/	52.235577	0.14295	1.0
Spetzâ¢	https://www.spetz.app	51.603197	-0.192104	1.0
Spherical Defence	http://sphericaldefence.com	51.517943	-0.090177	1.0
Spin Analytics Limited	http://spin-analytics.com	51.611179	-0.248244	1.0
Spirit AI	http://www.spiritai.com	51.521229	-0.099265	1.0
Springboard Research	http://www.spring-board.info	52.058193	-0.758389	1.0
Spiro Control	http://www.spirocontrol.com	53.275682	-2.827977	1.0
Sponsorlytix	http://www.sponsorlytix.io	51.504962	-0.087651	1.0
Spoon Guru	http://www.spoon.guru	51.696936	-0.532988	1.0
Sports Ledger	http://www.sportsledger.io	51.508594	-0.338471	1.0
Spot Intelligence	https://www.spotintelligence.com/	51.525615	-0.083628	1.0
Spotlight	http://talentspotlight.ai	51.52121	-0.159955	1.0
Spotlight Data	http://www.spotlightdata.co.uk	52.951902	-1.18381	1.0
Spread	https://getspread.io/	52.445664	-2.151049	1.0
SPIXII	http://spixii.com	51.546985	-0.023555	1.0
Spectra-Scope UK	https://www.spectra-scope.co.uk/	51.514897	-0.123615	1.0
Stockable.app	http://www.stockable.app	51.492767	-3.162146	1.0
STRAT7	http://strat7.com	51.329339	-0.412335	1.0
Surrey Heartlands Health Tech Accelerator	http://www.surreyheartlandshta.uk	51.239335	-0.605952	1.0		1.0
Sussex Innovation Centre	http://www.sinc.co.uk/	50.864354	-0.082761	1.0		1.0
Suzugia	https://suzugia-ai.com	51.501685	-0.192196	1.0
Swapp	http://www.swapp.net/	51.520839	-0.135869	1.0
Sweet Pricing	https://sweetpricing.com/en/	51.573724	0.424431	1.0
Sweetfish	http://sweetfish.co.uk	51.509192	-0.130119	1.0
Swift ERM	http://www.swifterm.com	52.413942	-1.83111	1.0
Surreal Vision Ltd	http://surreal.vision	51.650453	-0.381468	1.0
Swifter AI	https://swifter.ai	51.267892	-1.077497	1.0
Swogo	http://www.swogo.com	51.55032	-0.108178	1.0
SYD	https://syd.iamyiam.com/	51.517327	-0.142383	1.0
Symilarity	http://www.symilarity.com	51.514897	-0.123615	1.0
Synap	https://synap.ac	53.796213	-1.566757	1.0
Synaptiv	http://synaptiv.ai	51.52505	-0.117039	1.0
Synativ Technologies	http://www.synativ.com	51.525615	-0.083628	1.0
Synergy Softworks	http://www.synergysoftworks.com/	53.481043	-2.226332	1.0
Swipe Automotive	https://swipeautomotive.co.uk/	53.33932	-2.574822	1.0
StoryStream	http://www.storystream.ai	51.517772	-0.139925	1.0
Surgease Innovations Ltd	http://www.surgease.com	51.515521	-0.176395	1.0
SupportRoom	https://supportroom.com/online-employee-support-programme/	51.530785	-0.093391	1.0
Streamba	http://www.streamba.net/	57.14571	-2.083841	1.0
Streetbees	http://www.streetbees.com	51.52728	-0.087581	1.0
String	https://string.co/	52.233766	0.146114	1.0
Studio Inneract	https://www.studio-inneract.cc/	51.478952	-0.169126	1.0
Studio Victoria	http://studiovictoria.co	52.484215	-1.907951	1.0
StudyAtlas	https://www.studyatlas.com/	54.970856	-1.615895	1.0
Styloko	http://www.styloko.com	51.514962	-0.136292	1.0
SupraFin	http://suprafin.io	51.525615	-0.083628	1.0
SU Technology Ltd	http://www.supereye.co.uk	51.792877	-0.407295	1.0
SubjectiveSystems	http://www.subjectivesystems.com	52.347357	-0.534705	1.0
Subspace AI Ltd	http://subspace.ai	51.514151	-0.071124	1.0
SuccessData	http://successdata.ai	51.527689	-0.080011	1.0
Sum&Substance	https://sumsub.com	51.514484	-0.080463	1.0
Suntri	https://www.suntri.org	51.51604	-0.10352	1.0
Superforce	http://superforce.ai	51.507856	-0.141828	1.0
Supernova	http://www.supernova.ai	51.530169	-0.075481	1.0
Sub(x) technology	http://www.subx.tech	51.520134	-0.143609	1.0
Sibyl AI	https://sibylai.com	51.527304	-0.088894	1.0
Spectra Analytics	https://spectraanalytics.com/	51.512066	-0.084791	1.0
Spatia AI	http://www.spatia.ai	53.184585	-2.883296	1.0
Skim.it	https://docs.skim.it/	51.517181	-0.085337	1.0
Skin Analytics	http://www.skin-analytics.com/	51.523557	-0.081915	1.0
Skinlync	http://skinlync.com	52.187467	0.121954	1.0
Skinora	https://www.skinora.co.uk/	51.514455	-0.111772	1.0
SKY ENGINE	https://www.skyengine.ai	51.509974	-0.086735	1.0
Sky-Futures	https://www.sky-futures.com	53.749799	-2.459916	1.0
Skymind Global Limited	http://www.skymind.global	51.514484	-0.080463	1.0
Skillsize	https://skillsize.io/	51.530785	-0.093391	1.0
slamcore	https://www.slamcore.com	51.501694	-0.092398	1.0
SMAP Energy	http://smapenergy.com	51.51253	-0.088417	1.0
Smart Audio Technologies	http://www.smartaudiotechnologies.com	51.548349	-0.342193	1.0
Smart City Operating System	http://smartcityos.co.uk/	51.864502	-0.458179	1.0
Smart Cricket Global LTD	http://www.smartcricket.com	51.602496	-0.193331	1.0
Smart Migrator	https://www.smartmigrator.com	51.493039	-0.20363	1.0
Smart Website	https://smart-website.com	52.017474	-0.338924	1.0
Smart-cot	http://www.smart-cot.com	51.522586	-0.08537	1.0
Slanted Theory	http://www.slantedtheory.com	53.389498	-1.469893	1.0
SmartBell	https://www.smartbell.io/	52.199905	0.1218	1.0
SKAI LABS	https://www.skai.io/	51.504937	-0.019523	1.0
Singular Intelligence	http://www.singularintelligence.com/	51.504937	-0.019523	1.0
Siffrorna Technologies	http://siffrorna.com	53.341861	-1.033983	1.0
Siga Vision	http://sigavision.com	51.915269	-0.664926	1.0
Sigma Polaris	http://sigmapolaris.com	51.448923	-2.583545	1.0
Signal AI	http://www.signal-ai.com/	51.527447	-0.088297	1.0
Signalbox	http://www.signalbox.io	51.523973	-0.104874	1.0
Signoi	http://signoi.com	51.528778	-0.092838	1.0
Signol	https://www.signol.io/	51.501645	-0.189647	1.0
SiriusInsight.AI	http://www.siriusinsight.ai	51.503542	-0.110462	1.0
Sillwood Technologies	https://sillwood.tech	51.486522	-0.112304	1.0
Simcentric Technologies	https://www.simct.com	51.775869	-1.266575	1.0
SIME Diagnostics	http://simedx.com	51.515768	-0.224009	1.0
Simplifai Systems	http://www.simplifaisystems.com/	53.640103	-1.778486	1.0
Simplish	https://www.simplish.org	51.257042	-0.57171	1.0
Simply Regulation - FinregE	https://www.finreg-e.com/	51.504937	-0.019523	1.0
Simudyne	https://www.simudyne.com	51.513032	-0.085655	1.0
Singula Decisions	http://singuladecisions.com	56.135007	-3.203365	1.0
Silobreaker	https://www.silobreaker.com	51.516446	-0.133338	1.0
Spatial Flow	http://www.spatialflow.com	55.945756	-3.221762	1.0
smartBIDI	http://www.smartbidi.co.uk	51.460624	-0.272124	1.0
Smarter.ai	http://www.smarter.ai	51.530785	-0.093391	1.0
Solvo.ai	http://solvo.ai	51.528233	-0.123741	1.0
Sonalytic	https://www.sonalytic.com/	51.538271	-0.14127	1.0
Sonantic	http://sonantic.io	51.517943	-0.090177	1.0
SonicJobs	http://www.sonicjobs.co.uk	51.52208	-0.086314	1.0
SOONER.AI	http://www.sooner.ai	51.38586	-0.883316	1.0
Soter Analytics	http://soteranalytics.com	51.485561	-0.205077	1.0
soundpiece	http://www.soundpiece.co.uk	52.039443	0.956648	1.0
Solved By Ai Ltd	https://solvedby.ai/	55.950683	-3.206417	1.0
SourceBreaker	http://www.sourcebreaker.com	51.506109	-0.095574	1.0
Sourcific Consulting Ltd	http://www.sourcificconsulting.co.uk	51.751819	-0.473573	1.0
Sovran AI	http://sovranai.com	51.500721	0.00689	1.0
Space Forms	http://www.space-forms.com	51.466182	-0.954307	1.0
Space Intelligence	https://www.space-intelligence.com	55.955703	-3.151222	1.0
Spark EV Technology	http://sparkevtechnology.com	52.234821	0.129527	1.0
SparkIntelligence Ltd	http://www.sparkintelligence.co.uk	51.502709	0.045392	1.0
Sparrow	sparrow.science	51.515372	-0.072487	1.0
Sourcery	https://sourcery.ai	51.535806	-0.088204	1.0
Smarter Human	http://www.smarter-human.com	51.533075	-0.105534	1.0
Sodaclick	https://sodaclick.com	51.434212	-0.259281	1.0
Sociate AI	http://www.sociate.ai	51.574887	-1.314517	1.0
SmarterManufacturer	https://smartermanufacturer.com	53.99	-1.537033	1.0
Smarthodler	https://smarthodler.co.uk	51.529591	-0.111431	1.0
Smartia	http://smartia.tech	51.500942	-2.477598	1.0
SmartKYC	http://www.smartkyc.com/	51.517427	-0.124362	1.0
Smartology.net	http://www.smartology.net	51.648369	-0.169175	1.0
SmartScope	http://www.smartscopemarketing.co.uk	51.485973	-0.118365	1.0
SMARTsurg Project	http://smartsurg-project.eu	51.501079	-2.547458	1.0
Socital	https://socital.com/	51.369961	-0.195204	1.0
Smile Reader	https://smilereader.co.uk/	51.900469	-2.077303	1.0
SnapRapid	http://www.snaprapid.com	51.522382	-0.139161	1.0
Snaptivity	http://www.snaptivityapp.com	51.523193	-0.083413	1.0
SoAmpli	http://www.soampli.com	51.521936	-0.08632	1.0
SOAR Wellbeing	https://www.soar-app.com/	51.434419	-0.203897	1.0
Social Code LLC	https://cvcode.pro	51.527304	-0.088894	1.0
Social Nova Group	http://socialnova.co	51.494219	-0.225669	1.0
Social-i Networks Ltd	http://social-i.co	51.492642	-0.140775	1.0
Snap Vision	https://snap.vision	51.529773	-0.091443	1.0
Ivefi.ai	http://iverif.ai/	53.00817	-2.166815	1.0
Oxford Immune Algorithmics Ltd	http://www.immunealgorithmics.com	51.455676	-0.968047	1.0
itcher	http://itcher.com/	51.48725	-0.115673	1.0
Cambridge Machines Asset Management	http://www.cambridgemachines.com	52.198308	0.129129	1.0
Cambridge Micrologic	http://micrologic.io	52.214018	0.125064	1.0
Cambridge Molecular	http://www.cambridgemolecular.ai	52.233766	0.146114	1.0
Cambridge Quantum Computing	http://cambridgequantum.com/	51.35357	-0.310584	1.0
Cambridge Respiratory Innovations	https://www.camresp.com/	52.194361	0.135318	1.0
Cambridge Spark	https://www.cambridgespark.com	51.520751	-0.083112	1.0
Cambridge Touch Technologies Ltd.	http://www.camtouch3d.com	52.234825	0.136515	1.0
Cambridge Intelligence	https://cambridge-intelligence.com	52.19772	0.128296	1.0
Camdenai	http://www.camdenai.com	51.530785	-0.093391	1.0
CantabPi	http://www.cantabpi.com	52.235272	0.153729	1.0
Canterbury Ai	https://canterbury.ai	51.292103	1.064623	1.0
Cantine	http://www.thecantineco.com	51.517556	-0.119049	1.0
Capital Enterprise	https://capitalenterprise.org/programme-cap-ai/	51.521843	-0.084997	1.0		1.0
Capito Systems	http://www.capitosystems.com	52.235272	0.153729	1.0
Capnovum	http://capnovum.com	51.517285	-0.09603	1.0
Capri Healthcare	http://caprihealthcare.co.uk	52.4747	-1.903466	1.0
CanSense	http://cansenseltd.com	51.653039	-3.91196	1.0
Captain.ai	http://captain.ai	51.513832	-0.102112	1.0
Cambrian Intelligence	http://www.caint.io	51.541609	-0.158032	1.0
Calyo	http://calyo.co.uk	51.499618	-2.551821	1.0
Buildy	http://www.buildy.co	51.484527	-0.199869	1.0
Business Insight 3	http://www.bi3.co.uk	53.760415	-2.717607	1.0
Busuu	https://www.busuu.com	51.520272	-0.083002	1.0
Butterwire	http://butterwire.com	55.975587	-3.597655	1.0
Buzz Radar	http://www.buzzradar.com	51.54008	-0.152874	1.0
BYG Systems	https://bygsystems.com/	52.486481	-1.90858	1.0
Bytcaps Limited	http://bytcaps.com	52.218807	-0.056754	1.0
CamBioScience	http://www.cambioscience.com	52.214018	0.125064	1.0
C the Signs	http://cthesigns.co.uk	51.516903	-0.146389	1.0
Caboodle AI	https://www.caboodleai.com/	51.645063	0.05318	1.0
CAELUM AI Services Ltd.	https://caelumai.uk	51.530785	-0.093391	1.0
CAIG	http://www.carlyonaigroup.com	51.527304	-0.088894	1.0
Calbot	http://calbot.co.uk	53.805411	-1.550354	1.0
Calibre UK Ltd	http://www.calibreuk.com	51.631791	-0.082624	1.0
Calipsa	http://calipsa.io/	51.518849	-0.17361	1.0
CallSign	http://www.callsign.com	51.517671	-0.098753	1.0
C4DI â Centre for Digital Innovation	http://www.c4di.co.uk/	53.738909	-0.333217	1.0		1.0
Bubo.AI	http://bubo.ai	54.586416	-1.246959	1.0
Captivate Analytics	https://captivate-analytics.com	51.53274	-0.122157	1.0
Capture AI	http://www.captureai.net	51.405618	-0.653423	1.0
Centre for AI & Climate	https://www.icaiec.org/	52.272372	0.292932	1.0
CENTURY Tech	https://www.century.tech/	51.519929	-0.132951	1.0
Ceox Services Ltd	http://ceox.co.uk	51.210603	-0.572625	1.0
Cera Care	https://ceracare.co.uk	51.515595	-0.104403	1.0
Cerebriam Studio	http://web.cerebriam.com	51.524565	-0.112042	1.0
CereProc	https://www.cereproc.com/	55.946941	-3.201752	1.0
Cervest	https://cervest.earth/	51.516313	-0.139138	1.0
Cell4D Ltd	https://cell4d.com	51.530785	-0.093391	1.0
CGA Simulation	http://www.cgasimulation.com	53.394069	-2.969693	1.0
ChAI	https://chaipredict.com/	51.527304	-0.088894	1.0
CHAI Analytics	http://chaianalytics.com	51.525615	-0.083628	1.0
Chai Research Corp.	http://chai.ml/	52.194361	0.135318	1.0
Change My Face	http://www.changemyface.com	51.899013	-2.076515	1.0
CHANNELL SOFTWARE ENGINEERING LTD	https://remote.com/benchannell	52.058052	-0.741859	1.0
CHARM Therapeutics	https://charmtx.com	51.533481	-0.125043	1.0
ChartDepth	https://www.chartdepth.com/	51.514897	-0.123615	1.0
Chac Ltd	https://www.chac.io	51.499937	-0.090008	1.0
Captur	https://www.captur.ai	51.489467	-0.156678	1.0
Celaton	http://www.celaton.com	52.059617	-0.759575	1.0
CCG.ai (acquired by Dante Labs)	http://www.ccg.ai	52.234821	0.129527	1.0
Carbon Analytics	https://www.carbonanalytics.com/	51.530785	-0.093391	1.0
Carbon Re	http://www.carbonre.tech/	51.559402	0.076372	1.0
Carcinotech Ltd	http://www.carcinotech.co.uk	55.866036	-3.201265	1.0
Cardinal Analytics	https://cardinalanalytics.co/	54.584991	-5.940398	1.0
Cardinality	http://www.cardinality.co.uk	51.239373	-0.567415	1.0
Careviz	http://careviz.life	51.553516	-0.074005	1.0
CAROL bike	http://carolbike.com	51.492939	-0.166943	1.0
CDDPro	https://www.cddpro.com	51.520025	-0.162536	1.0
Carsift	https://carsift.co/	52.946361	-0.616853	1.0
CASP Technologies Limited	http://www.thecasp.com	53.466926	-2.233578	1.0
catsAi	https://www.catsai.co.uk/	51.586576	0.018237	1.0
CausaLens	https://www.causalens.com/	51.493445	-0.217972	1.0
Causaly	https://www.causaly.com	51.532863	-0.110058	1.0
Cawamo	http://cawamo.com	53.940672	-1.09211	1.0
Cazana	https://cazana.com/uk	51.521236	-0.087488	1.0
CC Hydrodynamics	http://www.cc-hydro.com	51.629369	-0.73458	1.0
Case Future	http://casefuture.com	51.590201	-0.061123	1.0
Chaser	https://chaserhq.com	51.527689	-0.080011	1.0
Bubblo (BubbleScene Ltd.)	https://bubbloapp.com/	51.508217	-0.123829	1.0
bskt	https://www.bskt.co/	51.530785	-0.093391	1.0
Blackford Analysis	https://www.blackfordanalysis.com/	55.923219	-3.187863	1.0
Blippar	http://www.blippar.com	51.506938	-0.106906	1.0
Block23	http://www.block23.me	51.520592	-0.12221	1.0
BlockCheck	https://www.myblockcheck.com/	51.46085	-0.305541	1.0
BlockDox	http://blockdox.com	51.504937	-0.019523	1.0
Bloom Agency	https://www.jaywing.com/	53.789835	-1.5339	1.0
Bloomino	http://bloomino.co.uk	51.510654	-0.071577	1.0
BlackDice Cyber	http://blackdice.io	53.839796	-1.621924	1.0
Bloomsbury Health	http://bloomsburyhealth.org	51.517427	-0.124362	1.0
Blue Duck Education - Mangahigh.com	http://www.mangahigh.com	51.52255	-0.08634	1.0
Blue Prism	http://www.blueprism.com/	51.524579	-0.141623	1.0
BluePatient	http://www.bluepatient.co.uk	51.527304	-0.088894	1.0
Bluepod Media	https://www.bluepodmedia.com/	51.729527	0.471917	1.0
Bluetech Energy	http://www.bluetech-energy.co.uk	55.858103	-4.278944	1.0
Blutick	https://blutick.com	52.190036	0.161214	1.0
Blyng	https://blyng.io	51.519712	-0.087782	1.0
Blooware | Applied Artificial Intelligence	http://blooware.co.uk	51.490608	0.034812	1.0
BMLL Technologies	https://www.bmlltech.com	51.525169	-0.090466	1.0
BlackCurve - Price Management & Optimisation Software	https://www.blackcurve.com	51.504575	-0.098016	1.0
Black Square Media	https://blacksquaremedia.com/	51.52482	-0.082698	1.0
Bidnamic	http://bidnamic.com	53.80049	-1.532335	1.0
Big Consultancy	http://big-consultancy.com	51.516753	-0.179203	1.0
BigSis	http://bigsis.tech/	51.461543	-0.983	1.0
BioCity Accelerator Programme	http://www.biocity.co.uk/accelerator	53.277552	-2.230068	1.0		1.0
Biolink Tech	https://biolink.tech	51.506822	-0.091294	1.0
Biomesight	http://www.biomesight.com	51.527304	-0.088894	1.0
Biop AI	http://biop.ai	51.46372	-0.30247	1.0
Black Swan Data	https://www.blackswan.com/	51.503492	-0.11564	1.0
BioPhonics	http://www.biophonics.co.uk	52.234821	0.129527	1.0
Bios Health	https://www.bios.health	52.194995	0.127829	1.0
Bipolar Buddy	https://www.bipolarbuddy.co.uk	51.525615	-0.083628	1.0
Bird.i	http://www.hibirdi.com	55.860428	-4.259346	1.0
BISINTELLIGENCE.COM	http://www.bisintelligence.com/	51.527304	-0.088894	1.0
Bitfount	https://bitfount.com	51.543909	-0.130077	1.0
Bitmaster	https://bitmaster.london	51.500523	-0.080592	1.0
BitNautic	http://www.bitnautic.com	51.545907	0.165728	1.0
Biorelate	http://biorelate.com/	53.463089	-2.238424	1.0
BTON Financial	http://www.btonfinancial.com	51.512122	-0.103711	1.0
BNM Analytics	http://www.bnmanalytics.com	51.65979	-0.397444	1.0
Body Volume Index	http://www.bodyvolume.com	52.104819	-2.311898	1.0
Brand Radar	https://www.brandradar.co.uk/	51.453388	-0.100832	1.0
BrandsEye	http://www.brandseye.com	51.493534	-0.148205	1.0
Brandwatch	https://www.brandwatch.com/	50.824496	-0.140054	1.0
Breathe AI	http://www.breathe-ai.com	51.514897	-0.123615	1.0
Breathe Happy	https://www.letsbreathehappy.com/	51.095137	-0.726424	1.0
Brego	https://www.brego.io	51.487373	-0.191432	1.0
Bricolage Research & Analysis	http://bricolagera.com	51.441607	-0.212321	1.0
BrainWaveBank	https://cumulusneuro.com/	54.613625	-5.898562	1.0
BRIDGE	http://www.bridgeglobal.co	51.523127	-0.086993	1.0
Brightmast	http://www.brightmast.com	53.305604	-2.373549	1.0
Brightmile	http://www.brightmile.io	51.500255	-0.189284	1.0
BrightSign	https://www.brightsignglove.com/	51.503692	-0.01491	1.0
BRL Technology Business Incubator	http://www.brl.ac.uk	51.501079	-2.547458	1.0		1.0
Bronze	http://www.bronze.ai	51.419431	-0.377345	1.0
Brookes Supply Chain Solutions	https://www.brookes-scs.com	51.517653	-0.142654	1.0
brytlyt	http://www.brytlyt.com	51.286242	0.545592	1.0
bridge_ci	https://www.bridgeci.co/	51.528069	-0.084679	1.0
Bodi.Me	http://bodi.me/	51.520229	-0.079256	1.0
Braintree	http://braintree.com/	51.310189	0.155139	1.0
BrainPatch	http://www.brainpatch.ai	51.519893	-0.130253	1.0
BODYSWAPS	http://bodyswaps.co	51.529418	-0.075239	1.0
Bold Data Ltd	http://www.bolddata.org	51.607107	-0.422103	1.0
Bold Mind	http://boldmind.co.uk	51.504937	-0.019523	1.0
Boltzbit	https://www.boltzbit.com	51.52435	-0.139672	1.0
Bomensoft	https://www.bomensoft.com	51.497722	-0.015545	1.0
BOOKLUK.com - Bookluk Ltd	https://bookluk.com/	51.513832	-0.102112	1.0
BOON	https://www.boon.so	50.902069	-1.404733	1.0
Brainpool	https://brainpool.ai/	51.537812	-0.130658	1.0
BOT-IOT	http://www.bot-iot.com	51.590841	-0.102106	1.0
BotCore.AI	https://botcore.ai/	51.522912	-0.650179	1.0
Botprobe	http://botprobe.co.uk	52.322751	-0.073486	1.0
BotsandUs	http://www.botsandus.com	51.494152	-0.062881	1.0
BotsCrew	https://botscrew.com/	51.516753	-0.179203	1.0
Braendler Engineering	http://braendler.com/home	51.518042	-0.180676	1.0
Brainminer	http://www.brainminer.co.uk	51.522322	-0.136554	1.0
Brainomix	http://www.brainomix.com	51.777813	-1.265355	1.0
Botchat Agency	http://www.botchat.agency/	54.12733	-2.76848	1.0
BICO AI	http://bico.ai	51.514044	-0.157257	1.0
ChatableApps	http://chatableapps.com	51.503492	-0.11564	1.0
Chatterbox Labs	http://www.chatterbox.co	51.518038	-0.122636	1.0
Corestrat Labs	https://cslabs.ai/	51.513463	-0.085652	1.0
Corigan SEO Platform	https://corigan.io	51.517516	-0.122222	1.0
Corizance	http://www.corizance.com	51.45959	-0.382471	1.0
Corporation 9	https://corporation9.com	51.622648	-0.105319	1.0
Correlation Machines	http://www.correlationmachines.com	51.101806	-2.686719	1.0
Cosmient	https://www.cosmient.ai	53.473009	-2.252504	1.0
Cosmosair	http://cosmosair.net	51.520592	-0.12221	1.0
Core Advanced Technologies	http://coreadvancedtechnologies.com	52.095482	-1.947112	1.0
CourtCorrect	https://www.courtcorrect.com	51.493102	-0.146519	1.0
Couvendaâ¢ - the 24/7 concierge for your brand	https://couvenda.com	52.207134	-0.95796	1.0
Cre8Care	http://www.cre8care.org	51.136829	-0.779764	1.0
create.ml	https://create.ml	51.059331	-1.319004	1.0
Creation Healthcare	https://creation.co/	51.51506	-0.13453	1.0
Creative Virtual	http://www.creativevirtual.com	51.507626	-0.026468	1.0
CREBL	http://www.crebl.com	54.788774	-1.58518	1.0
Credensa	https://www.credensa.co.uk	51.525522	-0.085117	1.0
CourtQuant	http://www.courtquant.com	51.578336	-0.138262	1.0
CreditEnable	http://www.creditenable.com	51.518467	-0.142405	1.0
Coracle Diagnostic	http://www.coracle.ai	51.506094	-0.137893	1.0
Conversationly	http://conversationly.co.uk	51.558454	-3.044589	1.0
Connect-AI	http://www.connect-ai.co.uk	51.527304	-0.088894	1.0
Connected World Technologies	https://www.connectedworld.tech	51.505918	-0.735221	1.0
Connected2	http://www.connected2.io	51.527772	-0.086882	1.0
Consequential Robotics	http://consequentialrobotics.com	51.501079	-2.547458	1.0
Constellation AI	https://constellation.ai/	52.47975	-1.904952	1.0
Construction AI and Data Trust	https://www.constructionai.org	53.276504	-2.764077	1.0
Construction Automation Limited	https://www.constructionautomation.co.uk/	53.924001	-0.800219	1.0
CooeeÂ®	http://www.letscooee.com	52.168615	0.101855	1.0
Consultivate	http://www.consultivate.com	51.520592	-0.12221	1.0
Content Score Limited	http://www.contentscore-ai.com	51.514455	-0.111772	1.0
Contentyze	https://contentyze.com/	51.514897	-0.123615	1.0
Contilio	http://www.contilio.com	51.521236	-0.087488	1.0
Continuum Industries	http://continuum.industries	55.946941	-3.201752	1.0
Conundrum	http://conundrum.ai	52.232284	0.151169	1.0
Converge	https://www.converge.io/	51.511497	-0.101918	1.0
Convergent Labs	https://www.whisperai.co.uk	51.525615	-0.083628	1.0
ContactEngine	https://www.contactengine.com/	50.92105	-1.310952	1.0
conectoMED	https://www.conectomed.com/	51.513211	-0.135888	1.0
Crescendo Systems	http://crescendosystems.co.uk/	51.430088	-0.389813	1.0
CRM Bot Ltd.	https://crmbot.ai	51.622648	-0.105319	1.0
CyberQ Group	https://cyberqgroup.com/	52.478442	-1.906211	1.0
Cyberseer	http://www.cyberseer.net/	51.509142	-0.08481	1.0
CyberSeguro	http://www.cyberseguroglobal.com	51.520809	-0.028608	1.0
Cybertonica	https://www.cybertonica.com/	51.521843	-0.084997	1.0
CyBourn	https://www.cybourn.com/	51.913916	-0.207175	1.0
Cybula	http://www.cybula.com/	53.946809	-1.030833	1.0
Cydar Medical	http://www.cydarmedical.com	52.126425	0.0355	1.0
CyberMind Technology Ltd	https://cybermindtech.com/	52.603059	-2.129192	1.0
CyLon	https://cylonlab.com/	51.496409	-0.227235	1.0	1.0	1.0
Cyted	https://cyted.ai	52.194361	0.135318	1.0
Cytomos Ltd.	http://www.cytomos.com	55.950807	-3.212041	1.0
Cytora	http://www.cytora.com/	51.524554	-0.1006	1.0
D.A.M. Good Media	https://www.damgoodmedia.com	50.819049	-1.577903	1.0
Dacian Consulting	https://daciandata.tech	51.443398	-0.202437	1.0
DACX	https://dacx.io	51.504937	-0.019523	1.0
DAIVID	http://www.daivid.co	51.472116	-0.084604	1.0
CyStellar	http://www.cystellar.com	51.513769	-0.082324	1.0
Crimson Step	http://www.crimsonstep.com	51.525615	-0.083628	1.0
Cyanapse	https://www.cyanapse.com	50.833404	-0.140339	1.0
CXAI Ltd	http://www.cxai.co.uk	51.518467	-0.142405	1.0
Cron AI	https://www.cronai.ai/	52.876851	-1.467867	1.0
CropSafe	http://cropsafe.io/	54.719469	-6.530275	1.0
Crossing35	https://crossing35.com	55.946251	-3.201586	1.0
Crowd Vision	http://www.crowdvision.com	51.502719	-0.110038	1.0
CrowdEmotion	http://www.crowdemotion.co.uk/	51.520068	-0.108106	1.0
Crowdynews	http://www.crowdynews.com	53.797085	-1.540059	1.0
Crozdesk	https://crozdesk.com	51.526082	-0.079041	1.0
CXPORTAL	https://www.cxportal.com/	51.504065	-0.018437	1.0
CRYPTON DIGITAL ASSETS	http://crypton.ai	51.514116	-0.131715	1.0
Cube Intelligence	http://cubeint.io	51.52208	-0.086314	1.0
Curenetics	https://www.curenetics.io/	51.616075	0.29922	1.0
Curve Analytics	http://curveanalytics.co.uk	51.513658	-0.115996	1.0
Curvestone	https://www.curvestone.io	51.516753	-0.179203	1.0
CustomsPlus	http://www.customsplus.co.uk	53.191638	-2.878801	1.0
CVEDIA	http://www.cvedia.com/	51.452229	-0.976796	1.0
CX Emotion	http://cx-emotion.com	51.509172	-0.126773	1.0
CUBE	https://www.cube.global	51.514521	-0.09486	1.0
Chatseer	https://www.chatseer.com	51.84392	-0.922629	1.0
Concured	http://www.concured.com	51.526019	-0.208166	1.0
Concirrus	https://www.concirrus.ai	51.504656	-0.088617	1.0
Circulor	https://www.circulor.com	51.495997	-0.230815	1.0
Cirrom	http://www.cirrom.com	51.349074	-0.461404	1.0
Citi Logik	http://www.citilogik.com	53.794865	-1.546622	1.0
Citispotter (UK)	http://citispotter.com	52.067887	-0.608772	1.0
City Data Science Society	http://www.datasciencesociety.city	51.527704	-0.102614	1.0
CityFalcon	https://www.cityfalcon.com	51.504937	-0.019523	1.0
CityMaaS	https://citymaas.io/	51.416601	0.013215	1.0
Circuit Mind	http://circuitmind.io	51.525615	-0.083628	1.0
CitySmarter.ai	https://www.citysmarter.ai	53.344988	-2.638781	1.0
Claritas HealthTech Pte Ltd	http://www.claritashealthtech.com	51.513272	-0.08664	1.0
Clariti AI	http://clariti.ai	51.529267	-0.088088	1.0
Class Charts	http://www.classcharts.com	51.99431	-4.977049	1.0
ClauseMatch	http://www.clausematch.com	51.503692	-0.01491	1.0
Clawsh Marketing	http://clawshmarketing.com	55.694635	-3.68783	1.0
Clear View Imaging	http://clearviewimaging.co.uk	51.739862	-0.968054	1.0
Cleo	https://www.meetcleo.com/	51.52486	-0.083631	1.0
Claim Technology	https://claimtechnology.co.uk	51.495339	-0.142452	1.0
Click 26	https://click26.co.uk	51.161506	-0.636587	1.0
Circosense	https://circosense.com	55.906421	-4.405154	1.0
Circadia	https://circadia.health	51.371591	-0.078271	1.0
Chattering Monkey	https://www.chatteringmonkey.co.uk	53.374451	-1.497015	1.0
Chattermill	https://chattermill.com/	51.520172	-0.070742	1.0
Check an Invoice	http://www.checkaninvoice.com/	51.518849	-0.17361	1.0
Checkdocs	https://www.checkdocs.co.uk/	52.283658	-1.531444	1.0
Chip	https://www.getchip.uk/	51.517484	-0.112941	1.0
Chironics.ai	http://www.chironics.ai	52.633426	-1.136	1.0
Chisel Robotics LTD.	http://chiselrobotics.com	51.456516	-2.582992	1.0
Circklo	https://www.circklo.com	51.513529	-0.086355	1.0		1.0
Chordata Limited	http://www.chordatainsight.com	51.33112	-0.248948	1.0
Chronomics	http://chronomics.com	51.515768	-0.224009	1.0
Churnly	http://churnly.ai	51.514897	-0.123615	1.0
Cievert	https://www.cievert.co.uk	54.963942	-1.605733	1.0
Cifres Ltd	https://www.cifres.com	52.243059	-0.873006	1.0
CINERATE	http://cinerate.app	51.515918	-0.122936	1.0
Cinnect	http://www.cinnect.net	51.516947	-0.104733	1.0
Cipher	https://cipher.ai/	51.511082	-0.128669	1.0
Chosen AI	http://chosen.ai	51.501645	-0.189647	1.0
Concr	http://www.concr.co	52.132684	0.205443	1.0
ClinTex Ltd	http://www.clintex.io	51.611064	-0.178421	1.0
Cloud IQ	https://www.cloudiq.com/	51.513348	-0.077934	1.0
Cognism	https://cognism.com	51.489442	-0.12339	1.0
Cognitiv+	http://www.cognitivplus.com/	51.54771	-0.128781	1.0
Cognitive Advertising Solutions	http://www.cognitiveadv.com/	51.550642	-0.165788	1.0
Cognitive Business	http://cognitive.business	51.514897	-0.123615	1.0
Cognitive Sales	http://www.cognitivesales.com	52.755966	1.570653	1.0
Cognosys	http://www.cognosys.co.uk/	50.924024	-1.398548	1.0
Colabox	https://colabox.co	52.153025	0.188043	1.0
Cognino	http://cognino.ai	51.579466	-0.3343	1.0
Collider	http://collider.io/	51.508413	-0.106932	1.0	1.0	1.0
Colourtext	https://colourtext.com/	54.73014	-2.603465	1.0
Combine AI	https://combine.ai	51.278633	-0.43475	1.0
CoMind	http://www.comind.io	51.522667	-0.108661	1.0
Comparesoft	http://comparesoft.com	51.514897	-0.123615	1.0
Complete Insight	http://www.complete-insight.com/	53.255132	-2.123918	1.0
ComplyAdvantage	https://complyadvantage.com/	51.517706	-0.12324	1.0
Computer Vision Machine Learning	https://www.simumation.limited	52.903757	-2.476384	1.0
Color Trix Ltd.	https://colorfinale.com/	51.876492	0.61295	1.0
Clippd	http://www.clippd.io	51.420172	-0.209015	1.0
Cogninn	http://www.cogninn.com/	51.523427	-0.13759	1.0
Cogmatic	http://cogmatic.io	51.514897	-0.123615	1.0
Cloud Officer	https://cloudofficer.co	51.49227	-0.223439	1.0
Cloudaeon	http://cloudaeon.co.uk	53.397872	-2.353017	1.0
Cloudbanter	http://www.cloudbanter.com	51.519947	-0.156946	1.0
CloudFactory	http://cloudfactory.com	51.579744	-0.370112	1.0
Cloudgap	https://www.cloudgap.ai	51.58181	-0.35499	1.0
CloudMade	http://www.cloudmade.com	51.51827	-0.110187	1.0
Cmlabs	https://cmlabs.com	51.003204	-1.383416	1.0
Cognetivity Neurosciences	http://www.cognetivity.com	51.51827	-0.110187	1.0
CMR Surgical	http://cmrsurgical.com	52.251597	0.134405	1.0
CODE LABX	https://codelabx.ltd	52.660138	-2.489399	1.0
CodeBase	http://www.thisiscodebase.com/	55.939959	-3.182275	1.0	1.0	1.0
Codec	http://www.codec.ai	51.527447	-0.088297	1.0
Codeplay Software	https://www.codeplay.com/	51.420991	-0.106047	1.0
coding.bio	http://www.coding.bio	51.75438	-1.2232	1.0
Coefficient Systems	https://coefficient.ai	51.518467	-0.142405	1.0
Cogitat	https://cogitat.io	52.046795	-0.022182	1.0
Coastr	https://www.coastr.com/	55.97707	-3.173073	1.0
Dalwyn	https://www.dalwyn.com	51.52384	-0.0961	1.0
Bibblio	https://www.bibblio.org	51.523874	-0.096546	1.0
Beyond Image - Intelligent Massage Retreat	https://aimassage.co.uk/	51.538865	0.746375	1.0
Ai8	http://www.ai8.io	51.449026	-0.111936	1.0
aiAcquire	http://www.aiacquire.com	51.214063	-0.74813	1.0
aiCV.io	http://aicv.io	51.514897	-0.123615	1.0
AIDAC Research Center	https://ai-dac.com/	53.052626	-3.006109	1.0
Aidrivers	https://aidrivers.ai	51.528136	-0.442105	1.0
AIF Quantum	https://aif-quantum.com/	51.517689	-0.155769	1.0
AIGRIA	https://aigria.com	51.491825	-0.038703	1.0
Ai4world	https://ai4world.org/	51.896882	-0.472026	1.0
Aiimi	http://www.aiimi.com	52.032747	-0.770378	1.0
Aimera - Interactive Marketing Channel	https://business.aimera.io	51.498772	-0.200547	1.0
Aimondo UK Ltd.	https://www.aimondo.com/en	51.514897	-0.123615	1.0
AIMS DYNAMICS	http://aimsdynamics.com	51.518467	-0.142405	1.0
AINOSTICS	https://www.ainostics.com	53.478001	-2.24628	1.0
aire	https://aire.io/	51.514455	-0.111772	1.0
Airfinity	https://www.airfinity.com	51.514923	-0.123654	1.0
